,SALE TYPE,SOLD DATE,PROPERTY TYPE,ADDRESS,CITY,STATE OR PROVINCE,ZIP OR POSTAL CODE,PRICE,BEDS,BATHS,LOCATION,SQUARE FEET,LOT SIZE,YEAR BUILT,DAYS ON MARKET,$/SQUARE FEET,HOA/MONTH,STATUS,NEXT OPEN HOUSE START TIME,NEXT OPEN HOUSE END TIME,URL (SEE http://www.redfin.com/buy-a-home/comparative-market-analysis FOR INFO ON PRICING),SOURCE,MLS#,FAVORITE,INTERESTED,LATITUDE,LONGITUDE
0,PAST SALE,December-29-2017,Condo/Co-op,400-B Ortega Ave #302,MOUNTAIN VIEW,CA,94040.0,725000.0,1.0,1.0,MOUNTAIN VIEW,763.0,1300.0,1975.0,1233.0,950.0,359.0,Sold,,,http://www.redfin.com/CA/Mountain-View/400-Ortega-Ave-94040/unit-302/home/12171858,MLSListings,ML81682611,N,Y,37.40001029999999,-122.10526180000001
1,PAST SALE,July-18-2018,Single Family Residential,1408 Ernestine Ln,MOUNTAIN VIEW,CA,94040.0,2650000.0,3.0,3.0,MOUNTAIN VIEW,1728.0,5160.0,1954.0,1032.0,1534.0,,Sold,,,http://www.redfin.com/CA/Mountain-View/1408-Ernestine-Ln-94040/home/1240232,MLSListings,ML81710838,N,Y,37.3865079,-122.09186129999999
2,PAST SALE,November-21-2018,Condo/Co-op,181 Del Medio Ave #209,MOUNTAIN VIEW,CA,94040.0,710000.0,1.0,1.0,MOUNTAIN VIEW,756.0,756.0,1962.0,906.0,939.0,389.0,Sold,,,http://www.redfin.com/CA/Mountain-View/181-Del-Medio-Ave-94040/unit-209/home/12171971,MLSListings,ML81726661,N,Y,37.4081669,-122.1114145
3,PAST SALE,June-23-2020,Condo/Co-op,2211 Latham St #302,MOUNTAIN VIEW,CA,94040.0,1200000.0,2.0,2.0,MOUNTAIN VIEW,1382.0,,1978.0,326.0,868.0,545.0,Sold,,,http://www.redfin.com/CA/Mountain-View/2211-Latham-St-94040/unit-302/home/2121184,MLSListings,ML81793396,N,Y,37.3972947,-122.1030499
4,PAST SALE,March-11-2021,Townhouse,1525 Tyler Park Way,MOUNTAIN VIEW,CA,94040.0,1500000.0,2.0,2.5,MOUNTAIN VIEW,1648.0,1351.0,1979.0,65.0,910.0,538.0,Sold,,,http://www.redfin.com/CA/Mountain-View/1525-Tyler-Park-Way-94040/home/1240252,MLSListings,ML81826757,N,Y,37.37538,-122.077552
5,PAST SALE,March-16-2017,Single Family Residential,1585 Bonita Ave,MOUNTAIN VIEW,CA,94040.0,1850000.0,3.0,2.0,MOUNTAIN VIEW,1178.0,5980.0,1953.0,1521.0,1570.0,,Sold,,,http://www.redfin.com/CA/Mountain-View/1585-Bonita-Ave-94040/home/548024,MLSListings,ML81639026,N,Y,37.3750686,-122.0800606
6,PAST SALE,May-7-2019,Single Family Residential,778 Rustic Ln,MOUNTAIN VIEW,CA,94040.0,2799000.0,5.0,3.0,MOUNTAIN VIEW,2412.0,8000.0,1975.0,739.0,1160.0,,Sold,,,http://www.redfin.com/CA/Mountain-View/778-Rustic-Ln-94040/home/1785749,MLSListings,ML81738121,N,Y,37.380117600000005,-122.0864581
7,PAST SALE,June-11-2020,Townhouse,157 Ortega Ave,MOUNTAIN VIEW,CA,94040.0,1500000.0,3.0,2.5,MOUNTAIN VIEW,1755.0,2865.0,1978.0,338.0,855.0,525.0,Sold,,,http://www.redfin.com/CA/Mountain-View/157-Ortega-Ave-94040/home/2121139,MLSListings,ML81793627,N,Y,37.4017723,-122.1017297
8,PAST SALE,May-25-2016,Single Family Residential,1040 Cuesta Dr,MOUNTAIN VIEW,CA,94040.0,2000000.0,3.0,2.0,MOUNTAIN VIEW,1652.0,6200.0,1955.0,1816.0,1211.0,,Sold,,,http://www.redfin.com/CA/Mountain-View/1040-Cuesta-Dr-94040/home/810345,MLSListings,ML81579899,N,Y,37.373618799999996,-122.0921106
9,PAST SALE,May-19-2016,Single Family Residential,801 S Knickerbocker Dr,SUNNYVALE,CA,94087.0,1375000.0,3.0,2.0,SUNNYVALE,1120.0,5000.0,1955.0,1822.0,1228.0,,Sold,,,http://www.redfin.com/CA/Sunnyvale/801-S-Knickerbocker-Dr-94087/home/1653250,MLSListings,ML81578554,N,Y,37.370486299999996,-122.0607733
10,PAST SALE,October-16-2020,Single Family Residential,1077 Brighton Pl,MOUNTAIN VIEW,CA,94040.0,2550000.0,3.0,2.0,MOUNTAIN VIEW,1433.0,7324.0,1954.0,211.0,1779.0,,Sold,,,http://www.redfin.com/CA/Mountain-View/1077-Brighton-Pl-94040/home/1511492,MLSListings,ML81811606,N,Y,37.390590100000004,-122.10147450000001
11,PAST SALE,April-22-2019,Condo/Co-op,49 Showers Dr Unit A142,MOUNTAIN VIEW,CA,94040.0,1200000.0,3.0,2.0,MOUNTAIN VIEW,1392.0,21821.0,1977.0,754.0,862.0,435.0,Sold,,,http://www.redfin.com/CA/Mountain-View/49-Showers-Dr-94040/unit-A142/home/2121020,MLSListings,ML81743498,N,Y,37.4041901,-122.10272749999999
12,PAST SALE,September-11-2020,Single Family Residential,135 Wortham Ct,MOUNTAIN VIEW,CA,94040.0,2568000.0,4.0,3.5,MOUNTAIN VIEW,2202.0,8891.0,1966.0,246.0,1166.0,,Sold,,,http://www.redfin.com/CA/Mountain-View/135-Wortham-Ct-94040/home/648041,MLSListings,ML81802217,N,Y,37.366010700000004,-122.0772085
13,PAST SALE,December-28-2017,Single Family Residential,2380 Sun Mor Ave,MOUNTAIN VIEW,CA,94040.0,2322000.0,3.0,2.0,MOUNTAIN VIEW,1722.0,9375.0,1952.0,1234.0,1348.0,,Sold,,,http://www.redfin.com/CA/Mountain-View/2380-Sun-Mor-Ave-94040/home/648598,MLSListings,ML81685370,N,Y,37.3700143,-122.0704062
14,PAST SALE,October-15-2018,Condo/Co-op,400 Ortega Ave #209,MOUNTAIN VIEW,CA,94040.0,840000.0,2.0,1.0,MOUNTAIN VIEW,928.0,1016.0,1975.0,943.0,905.0,505.0,Sold,,,http://www.redfin.com/CA/Mountain-View/400-Ortega-Ave-94040/unit-209/home/12171851,MLSListings,ML81718165,N,Y,37.3995296,-122.10568219999999
15,PAST SALE,January-16-2018,Single Family Residential,302 Monroe Dr,MOUNTAIN VIEW,CA,94040.0,2825000.0,5.0,4.5,MOUNTAIN VIEW,3043.0,11039.0,1988.0,1215.0,928.0,,Sold,,,http://www.redfin.com/CA/Mountain-View/302-Monroe-Dr-94040/home/2121122,MLSListings,ML81685928,N,Y,37.4107022,-122.1167834
16,PAST SALE,February-3-2021,Condo/Co-op,118 Ranch Ln,MOUNTAIN VIEW,CA,94040.0,1600000.0,3.0,3.5,MOUNTAIN VIEW,1705.0,,2018.0,101.0,938.0,399.0,Sold,,,http://www.redfin.com/CA/Mountain-View/118-Ranch-Ln-94040/home/168869325,MLSListings,ML81733174,N,Y,37.403135299999995,-122.1014148
17,PAST SALE,February-10-2021,Single Family Residential,1848 Golden Way,MOUNTAIN VIEW,CA,94040.0,3600000.0,3.0,2.5,MOUNTAIN VIEW,2429.0,8950.0,1965.0,94.0,1482.0,,Sold,,,http://www.redfin.com/CA/Mountain-View/1848-Golden-Way-94040/home/1376057,MLSListings,ML81827352,N,Y,37.3696443,-122.09080130000001
18,PAST SALE,January-5-2018,Single Family Residential,1855 Fordham Way,MOUNTAIN VIEW,CA,94040.0,3280000.0,3.0,2.5,MOUNTAIN VIEW,2200.0,8953.0,1965.0,1226.0,1491.0,,Sold,,,http://www.redfin.com/CA/Mountain-View/1855-Fordham-Way-94040/home/642439,MLSListings,ML81685921,N,Y,37.369434999999996,-122.0912452
19,PAST SALE,May-7-2021,Single Family Residential,1675 Tulane Dr,MOUNTAIN VIEW,CA,94040.0,3110000.0,3.0,2.0,MOUNTAIN VIEW,1837.0,6300.0,1952.0,8.0,1693.0,,Sold,,,http://www.redfin.com/CA/Mountain-View/1675-Tulane-Dr-94040/home/641958,MLSListings,ML81837305,N,Y,37.3749854,-122.08771680000001
20,PAST SALE,October-14-2016,Condo/Co-op,181 Del Medio Ave #208,MOUNTAIN VIEW,CA,94040.0,522000.0,1.0,1.0,MOUNTAIN VIEW,756.0,757.0,1962.0,1674.0,690.0,354.0,Sold,,,http://www.redfin.com/CA/Mountain-View/181-Del-Medio-Ave-94040/unit-208/home/12171970,MLSListings,ML81613209,N,Y,37.408218100000006,-122.111057
21,PAST SALE,July-20-2018,Condo/Co-op,183 Del Medio Ave #302,MOUNTAIN VIEW,CA,94040.0,920000.0,2.0,2.0,MOUNTAIN VIEW,1012.0,714.0,1962.0,1030.0,909.0,518.0,Sold,,,http://www.redfin.com/CA/Mountain-View/183-Del-Medio-Ave-94040/unit-302/home/2121266,MLSListings,ML81704546,N,Y,37.407743200000006,-122.1119469
22,PAST SALE,May-25-2018,Condo/Co-op,2025 California St #48,MOUNTAIN VIEW,CA,94040.0,750000.0,2.0,1.0,MOUNTAIN VIEW,789.0,769.0,1965.0,1086.0,951.0,400.0,Sold,,,http://www.redfin.com/CA/Mountain-View/2025-California-St-94040/unit-48/home/1391668,MLSListings,ML81700379,N,Y,37.3979898,-122.09852340000002
23,PAST SALE,July-2-2020,Townhouse,213 Ortega Ave,MOUNTAIN VIEW,CA,94040.0,1425000.0,3.0,2.5,MOUNTAIN VIEW,1725.0,2100.0,1978.0,317.0,826.0,525.0,Sold,,,http://www.redfin.com/CA/Mountain-View/213-Ortega-Ave-94040/home/12171894,MLSListings,ML81790142,N,Y,37.4028232,-122.10287240000001
24,PAST SALE,June-24-2016,Townhouse,102 Pacchetti Way,MOUNTAIN VIEW,CA,94040.0,1100000.0,3.0,3.0,MOUNTAIN VIEW,1292.0,662.0,1997.0,1786.0,851.0,193.0,Sold,,,http://www.redfin.com/CA/Mountain-View/102-Pacchetti-Way-94040/home/12172152,MLSListings,ML81585140,N,Y,37.4066601,-122.1071568
25,PAST SALE,April-21-2017,Townhouse,113 Pacchetti Way,MOUNTAIN VIEW,CA,94040.0,1350000.0,3.0,3.0,MOUNTAIN VIEW,1525.0,915.0,1997.0,1485.0,885.0,215.0,Sold,,,http://www.redfin.com/CA/Mountain-View/113-Pacchetti-Way-94040/home/12172121,MLSListings,ML81642072,N,Y,37.4062985,-122.1070054
26,PAST SALE,September-18-2017,Townhouse,111 Pacchetti Way,MOUNTAIN VIEW,CA,94040.0,1230000.0,2.0,2.5,MOUNTAIN VIEW,1080.0,871.0,1996.0,1335.0,1139.0,215.0,Sold,,,http://www.redfin.com/CA/Mountain-View/111-Pacchetti-Way-94040/home/12172122,MLSListings,ML81674359,N,Y,37.4063381,-122.1069878
27,PAST SALE,June-30-2020,Condo/Co-op,255 S Rengstorff Ave #119,MOUNTAIN VIEW,CA,94040.0,860000.0,2.0,2.0,MOUNTAIN VIEW,1003.0,,1965.0,319.0,857.0,556.0,Sold,,,http://www.redfin.com/CA/Mountain-View/255-S-Rengstorff-Ave-94040/unit-119/home/1748754,MLSListings,ML81793285,N,Y,37.4000438,-122.09900079999998
28,PAST SALE,December-24-2020,Single Family Residential,1813 Orangetree Ln,MOUNTAIN VIEW,CA,94040.0,2650000.0,3.0,2.0,MOUNTAIN VIEW,1280.0,6932.0,1955.0,142.0,2070.0,,Sold,,,http://www.redfin.com/CA/Mountain-View/1813-Orangetree-Ln-94040/home/979970,MLSListings,ML81820924,N,Y,37.3706165,-122.09397460000001
29,PAST SALE,June-6-2019,Townhouse,112 Sondgroth Way,MOUNTAIN VIEW,CA,94040.0,1325000.0,3.0,3.0,MOUNTAIN VIEW,1292.0,697.0,1996.0,709.0,1026.0,233.0,Sold,,,http://www.redfin.com/CA/Mountain-View/112-Sondgroth-Way-94040/home/12172129,MLSListings,ML81748606,N,Y,37.406048999999996,-122.10706200000001
30,PAST SALE,July-31-2018,Condo/Co-op,49 Showers Dr Unit V402,MOUNTAIN VIEW,CA,94040.0,1460000.0,3.0,2.5,MOUNTAIN VIEW,1487.0,6248.0,1974.0,1019.0,982.0,434.0,Sold,,,http://www.redfin.com/CA/Mountain-View/49-Showers-Dr-94040/unit-V402/home/2120907,MLSListings,ML81712443,N,Y,37.40497678208195,-122.10454017034745
31,PAST SALE,October-4-2019,Multi-Family (2-4 Unit),1825 S Springer Rd,MOUNTAIN VIEW,CA,94040.0,2650000.0,4.0,,MOUNTAIN VIEW,1682.0,8429.0,1957.0,589.0,1576.0,,Sold,,,http://www.redfin.com/CA/Mountain-View/1825-Springer-Rd-94040/home/1427631,MLSListings,ML81764287,N,Y,37.3702415,-122.0957719
32,PAST SALE,March-31-2017,Condo/Co-op,49 Showers Dr Unit E152,MOUNTAIN VIEW,CA,94040.0,768000.0,1.0,1.0,MOUNTAIN VIEW,959.0,1880.0,1976.0,1506.0,801.0,410.0,Sold,,,http://www.redfin.com/CA/Mountain-View/49-Showers-Dr-94040/unit-E152/home/12171798,MLSListings,ML81639815,N,Y,37.4050369,-122.103554
33,PAST SALE,May-17-2019,Condo/Co-op,49 Showers Dr Unit A140,MOUNTAIN VIEW,CA,94040.0,1050000.0,2.0,2.0,MOUNTAIN VIEW,1168.0,21821.0,1977.0,729.0,899.0,435.0,Sold,,,http://www.redfin.com/CA/Mountain-View/49-Showers-Dr-94040/unit-A140/home/12171821,MLSListings,ML81746639,N,Y,37.4041901,-122.10272749999999
34,PAST SALE,April-18-2018,Condo/Co-op,49 Showers Dr Unit J316,MOUNTAIN VIEW,CA,94040.0,1350000.0,3.0,2.0,MOUNTAIN VIEW,1392.0,1880.0,1977.0,1123.0,970.0,434.0,Sold,,,http://www.redfin.com/CA/Mountain-View/49-Showers-Dr-94040/unit-J316/home/2120981,MLSListings,ML81695246,N,Y,37.4050369,-122.103554
35,PAST SALE,May-24-2016,Single Family Residential,646 Lola Ln,MOUNTAIN VIEW,CA,94040.0,1958000.0,3.0,2.0,MOUNTAIN VIEW,1546.0,7040.0,1955.0,1817.0,1266.0,,Sold,,,http://www.redfin.com/CA/Mountain-View/646-Lola-Ln-94040/home/709045,MLSListings,ML81583846,N,Y,37.3763472,-122.0825551
36,PAST SALE,November-6-2019,Townhouse,165 Ortega Ave,MOUNTAIN VIEW,CA,94040.0,1336500.0,2.0,2.5,MOUNTAIN VIEW,1584.0,1696.0,1978.0,556.0,844.0,497.0,Sold,,,http://www.redfin.com/CA/Mountain-View/165-Ortega-Ave-94040/home/2121148,MLSListings,ML81771048,N,Y,37.401668900000004,-122.101297
37,PAST SALE,June-12-2020,Townhouse,209 Ortega Ave,MOUNTAIN VIEW,CA,94040.0,1465000.0,3.0,2.5,MOUNTAIN VIEW,1725.0,2543.0,1978.0,337.0,849.0,525.0,Sold,,,http://www.redfin.com/CA/Mountain-View/209-Ortega-Ave-94040/home/2121134,MLSListings,ML81787755,N,Y,37.40273320000001,-122.1023953
38,PAST SALE,July-19-2018,Single Family Residential,1128 Phyllis Ave,MOUNTAIN VIEW,CA,94040.0,2050000.0,3.0,2.0,MOUNTAIN VIEW,1314.0,5131.0,1955.0,1031.0,1560.0,,Sold,,,http://www.redfin.com/CA/Mountain-View/1128-Phyllis-Ave-94040/home/1023597,MLSListings,ML81705855,N,Y,37.3808864,-122.07813020000002
39,PAST SALE,September-16-2019,Single Family Residential,949 Eichler Dr,MOUNTAIN VIEW,CA,94040.0,2688000.0,4.0,2.0,MOUNTAIN VIEW,1912.0,7687.0,1972.0,607.0,1406.0,,Sold,,,http://www.redfin.com/CA/Mountain-View/949-Eichler-Dr-94040/home/1151192,MLSListings,ML81764683,N,Y,37.381721399999996,-122.0887906
40,PAST SALE,August-7-2020,Single Family Residential,951 Trophy Dr,MOUNTAIN VIEW,CA,94040.0,2500000.0,4.0,2.0,MOUNTAIN VIEW,2030.0,6167.0,1972.0,281.0,1232.0,,Sold,,,http://www.redfin.com/CA/Mountain-View/951-Trophy-Dr-94040/home/644164,MLSListings,ML81799249,N,Y,37.3826861,-122.08869640000002
41,PAST SALE,January-3-2017,Townhouse,150 Alley Way,MOUNTAIN VIEW,CA,94040.0,1225000.0,2.0,2.5,MOUNTAIN VIEW,1362.0,1512.0,1996.0,1593.0,899.0,212.0,Sold,,,http://www.redfin.com/CA/Mountain-View/150-Alley-Way-94040/home/2121415,MLSListings,ML81634601,N,Y,37.406203399999995,-122.1062058
42,PAST SALE,August-24-2020,Single Family Residential,1859 Van Buren Cir,MOUNTAIN VIEW,CA,94040.0,3458000.0,4.0,2.5,MOUNTAIN VIEW,2433.0,8560.0,1963.0,264.0,1421.0,,Sold,,,http://www.redfin.com/CA/Mountain-View/1859-Van-Buren-Cir-94040/home/1822855,MLSListings,ML81799355,N,Y,37.369480100000004,-122.0893831
43,PAST SALE,March-31-2020,Single Family Residential,505 Preston Dr,MOUNTAIN VIEW,CA,94040.0,2975000.0,4.0,2.5,MOUNTAIN VIEW,2398.0,8381.0,1971.0,410.0,1241.0,,Sold,,,http://www.redfin.com/CA/Mountain-View/505-Preston-Dr-94040/home/650478,MLSListings,ML81782453,N,Y,37.3638915,-122.0737798
44,PAST SALE,November-1-2017,Multi-Family (5+ Unit),565 Escuela Ave,MOUNTAIN VIEW,CA,94040.0,7255000.0,5.0,,MOUNTAIN VIEW,15109.0,28696.0,1963.0,1291.0,480.0,,Sold,,,http://www.redfin.com/CA/Mountain-View/565-Escuela-Ave-94040/home/616181,MLSListings,ML81654397,N,Y,37.3945696,-122.0947068
45,PAST SALE,March-25-2019,Condo/Co-op,1943 Mount Vernon Ct #310,MOUNTAIN VIEW,CA,94040.0,1080000.0,2.0,2.0,MOUNTAIN VIEW,1169.0,2500.0,1977.0,782.0,924.0,550.0,Sold,,,http://www.redfin.com/CA/Mountain-View/1943-Mt-Vernon-Ct-94040/unit-310/home/616629,MLSListings,ML81739389,N,Y,37.39626320000001,-122.0967429
46,PAST SALE,October-9-2020,Single Family Residential,1518 Fordham Way,MOUNTAIN VIEW,CA,94040.0,2770000.0,5.0,3.0,MOUNTAIN VIEW,2147.0,8300.0,1954.0,218.0,1290.0,,Sold,,,http://www.redfin.com/CA/Mountain-View/1518-Fordham-Way-94040/home/640986,MLSListings,ML81797751,N,Y,37.3788136,-122.0912452
47,PAST SALE,November-26-2018,Townhouse,1116 Boranda Ave,MOUNTAIN VIEW,CA,94040.0,1900000.0,4.0,3.0,MOUNTAIN VIEW,2112.0,2635.0,2007.0,901.0,900.0,476.0,Sold,,,http://www.redfin.com/CA/Mountain-View/1116-Boranda-Ave-94040/home/17288326,MLSListings,ML81728764,N,Y,37.380951,-122.08256499999999
48,PAST SALE,January-23-2018,Townhouse,103 Pacchetti Way,MOUNTAIN VIEW,CA,94040.0,1650000.0,3.0,3.0,MOUNTAIN VIEW,1292.0,665.0,1996.0,1208.0,1277.0,215.0,Sold,,,http://www.redfin.com/CA/Mountain-View/103-Pacchetti-Way-94040/home/12172132,MLSListings,ML81686514,N,Y,37.4064755,-122.10686770000001
49,PAST SALE,March-14-2018,Townhouse,108 Hilary Ave,MOUNTAIN VIEW,CA,94040.0,1425000.0,2.0,2.5,MOUNTAIN VIEW,1080.0,705.0,1996.0,1158.0,1319.0,211.0,Sold,,,http://www.redfin.com/CA/Mountain-View/108-Hilary-Ave-94040/home/2121438,MLSListings,ML81691252,N,Y,37.406111100000004,-122.10676979999998
50,PAST SALE,October-31-2018,Single Family Residential,112 Beacon St,MOUNTAIN VIEW,CA,94040.0,1860000.0,3.0,2.5,MOUNTAIN VIEW,1339.0,1850.0,1995.0,927.0,1389.0,79.0,Sold,,,http://www.redfin.com/CA/Mountain-View/112-Beacon-St-94040/home/2121381,MLSListings,ML81725015,N,Y,37.4053141,-122.106844
51,PAST SALE,July-6-2017,Mobile/Manufactured Home,191 E El Camino Real #188,MOUNTAIN VIEW,CA,94041.0,200000.0,2.0,2.0,MOUNTAIN VIEW,1000.0,,2000.0,1409.0,200.0,,Sold,,,http://www.redfin.com/CA/Mountain-View/191-E-El-Camino-Real-94040/unit-188/home/113761147,MLSListings,ML81648062,N,Y,37.3785654,-122.069854
52,PAST SALE,February-20-2019,Multi-Family (5+ Unit),2336 California St,MOUNTAIN VIEW,CA,94040.0,5350000.0,6.0,,MOUNTAIN VIEW,11114.0,14190.0,1962.0,815.0,481.0,,Sold,,,http://www.redfin.com/CA/Mountain-View/2336-California-St-94040/home/12171632,MLSListings,ML81728575,N,Y,37.4026611,-122.10534409999998
53,PAST SALE,May-19-2020,Condo/Co-op,400 Ortega Ave #310,MOUNTAIN VIEW,CA,94040.0,800000.0,2.0,1.0,MOUNTAIN VIEW,939.0,,1975.0,361.0,852.0,515.0,Sold,,,http://www.redfin.com/CA/Mountain-View/400-Ortega-Ave-94040/unit-310/home/2121071,MLSListings,ML81789077,N,Y,37.400231,-122.10534399999999
54,PAST SALE,May-27-2016,Townhouse,1667 Grant Dr,MOUNTAIN VIEW,CA,94040.0,1330000.0,4.0,3.0,MOUNTAIN VIEW,1884.0,1725.0,1979.0,1814.0,706.0,575.0,Sold,,,http://www.redfin.com/CA/Mountain-View/1667-Grant-Rd-94040/home/1531835,MLSListings,ML81581374,N,Y,37.374708,-122.076572
55,PAST SALE,September-4-2020,Single Family Residential,1115 Nilda Ave,MOUNTAIN VIEW,CA,94040.0,1788000.0,3.0,1.0,MOUNTAIN VIEW,1028.0,5641.0,1952.0,253.0,1739.0,,Sold,,,http://www.redfin.com/CA/Mountain-View/1115-Nilda-Ave-94040/home/1763340,MLSListings,ML81799077,N,Y,37.3809106,-122.0793504
56,PAST SALE,February-27-2018,Condo/Co-op,49 Showers Dr Unit J220,MOUNTAIN VIEW,CA,94040.0,860000.0,1.0,1.0,MOUNTAIN VIEW,1000.0,,1977.0,1173.0,860.0,435.0,Sold,,,http://www.redfin.com/CA/Mountain-View/49-Showers-Dr-94040/unit-J220/home/2120975,MLSListings,ML81691117,N,Y,37.403987799999996,-122.1033605
57,PAST SALE,October-3-2016,Mobile/Manufactured Home,1075 Space Park Way #8,MOUNTAIN VIEW,CA,94043.0,225000.0,3.0,2.0,MOUNTAIN VIEW,1410.0,,1998.0,1685.0,160.0,,Sold,,,http://www.redfin.com/CA/Mountain-View/1075-Mountain-View-Ave-94040/unit-8/home/1090286,MLSListings,ML81594985,N,Y,37.3846061,-122.09025120000001
58,PAST SALE,December-31-2020,Condo/Co-op,49 Showers Dr Unit A139,MOUNTAIN VIEW,CA,94040.0,947500.0,2.0,2.0,MOUNTAIN VIEW,1206.0,,1977.0,135.0,786.0,485.0,Sold,,,http://www.redfin.com/CA/Mountain-View/49-Showers-Dr-94040/unit-A139/home/12171820,MLSListings,ML81808341,N,Y,37.4041901,-122.10272749999999
59,PAST SALE,August-14-2017,Single Family Residential,1654 Columbia Dr,MOUNTAIN VIEW,CA,94040.0,2320000.0,3.0,2.0,MOUNTAIN VIEW,1845.0,7030.0,1954.0,1370.0,1257.0,,Sold,,,http://www.redfin.com/CA/Mountain-View/1654-Columbia-Dr-94040/home/1160862,MLSListings,ML81669585,N,Y,37.375339700000005,-122.0953503
60,PAST SALE,August-21-2017,Townhouse,183 Ortega Ave,MOUNTAIN VIEW,CA,94040.0,1290000.0,2.0,2.5,MOUNTAIN VIEW,1584.0,1780.0,1978.0,1363.0,814.0,457.0,Sold,,,http://www.redfin.com/CA/Mountain-View/183-Ortega-Ave-94040/home/2121141,MLSListings,ML81669700,N,Y,37.4021777,-122.10147450000001
61,PAST SALE,October-17-2017,Condo/Co-op,255 S Rengstorff Ave #161,MOUNTAIN VIEW,CA,94040.0,535000.0,1.0,1.0,MOUNTAIN VIEW,551.0,1395.0,1965.0,1306.0,971.0,394.0,Sold,,,http://www.redfin.com/CA/Mountain-View/255-S-Rengstorff-Ave-94040/unit-161/home/1748760,MLSListings,ML81680359,N,Y,37.4000438,-122.09900079999998
62,PAST SALE,July-17-2017,Townhouse,2272 Towne Cir,MOUNTAIN VIEW,CA,94040.0,1460000.0,3.0,3.0,MOUNTAIN VIEW,1539.0,933.0,2002.0,1398.0,949.0,323.0,Sold,,,http://www.redfin.com/CA/Mountain-View/2272-Towne-Cir-94040/home/12177495,MLSListings,ML81656088,N,Y,37.403915999999995,-122.1007825
63,PAST SALE,June-3-2016,Townhouse,139 Ortega Ave,MOUNTAIN VIEW,CA,94040.0,1335000.0,3.0,2.5,MOUNTAIN VIEW,1755.0,2491.0,1978.0,1807.0,761.0,435.0,Sold,,,http://www.redfin.com/CA/Mountain-View/139-Ortega-Ave-94040/home/2121130,MLSListings,ML81585129,N,Y,37.4022536,-122.1026172
64,PAST SALE,April-20-2017,Single Family Residential,219 Ortega Ave,MOUNTAIN VIEW,CA,94040.0,1400000.0,3.0,2.5,MOUNTAIN VIEW,1755.0,2492.0,1978.0,1486.0,798.0,457.0,Sold,,,http://www.redfin.com/CA/Mountain-View/219-Ortega-Ave-94040/home/2121137,MLSListings,ML81642833,N,Y,37.4026778,-122.10295
65,PAST SALE,June-6-2016,Townhouse,61 Sheffield Ct,MOUNTAIN VIEW,CA,94040.0,1225000.0,3.0,3.5,MOUNTAIN VIEW,1543.0,993.0,2002.0,1804.0,794.0,321.0,Sold,,,http://www.redfin.com/CA/Mountain-View/61-Sheffield-Ct-94040/home/2121724,MLSListings,ML81564622,N,Y,37.4034096,-122.10057809999999
66,PAST SALE,August-24-2018,Single Family Residential,992 Boranda Ave,MOUNTAIN VIEW,CA,94040.0,1750000.0,3.0,2.0,MOUNTAIN VIEW,1088.0,8640.0,1930.0,995.0,1608.0,,Sold,,,http://www.redfin.com/CA/Mountain-View/992-Boranda-Ave-94040/home/645153,MLSListings,ML81705099,N,Y,37.3830344,-122.08270320000001
67,PAST SALE,September-1-2017,Single Family Residential,2121 University Ave,MOUNTAIN VIEW,CA,94040.0,1350000.0,3.0,2.0,MOUNTAIN VIEW,1132.0,4165.0,1938.0,1352.0,1193.0,,Sold,,,http://www.redfin.com/CA/Mountain-View/2121-University-Ave-94040/home/12171532,MLSListings,ML81667919,N,Y,37.3999854,-122.0999213
68,PAST SALE,July-24-2020,Single Family Residential,169 College Ave,MOUNTAIN VIEW,CA,94040.0,1385000.0,3.0,2.0,MOUNTAIN VIEW,1104.0,3456.0,1998.0,295.0,1255.0,,Sold,,,http://www.redfin.com/CA/Mountain-View/169-College-Ave-94040/home/12171571,MLSListings,ML81795018,N,Y,37.40235379999999,-122.0999324
69,PAST SALE,November-2-2018,Single Family Residential,1694 Montalto Dr,MOUNTAIN VIEW,CA,94040.0,1850000.0,3.0,2.0,MOUNTAIN VIEW,1300.0,7947.0,1955.0,925.0,1423.0,,Sold,,,http://www.redfin.com/CA/Mountain-View/1694-Montalto-Dr-94040/home/1562308,MLSListings,ML81727209,N,Y,37.373841299999995,-122.08256829999999
70,PAST SALE,May-20-2020,Single Family Residential,2701 Katrina Way,MOUNTAIN VIEW,CA,94040.0,2350000.0,3.0,2.0,MOUNTAIN VIEW,1726.0,8382.0,1925.0,360.0,1362.0,,Sold,,,http://www.redfin.com/CA/Mountain-View/2701-Katrina-Way-94040/home/1346277,MLSListings,ML81785187,N,Y,37.3656249,-122.06792040000002
71,PAST SALE,November-21-2018,Single Family Residential,13411 Pastel Ln,MOUNTAIN VIEW,CA,94040.0,2420000.0,3.0,2.0,MOUNTAIN VIEW,1685.0,10413.0,1956.0,906.0,1436.0,,Sold,,,http://www.redfin.com/CA/Mountain-View/13411-Pastel-Ln-94040/home/1439880,MLSListings,ML81728776,N,Y,37.3726895,-122.0692521
72,PAST SALE,September-5-2018,Single Family Residential,1193 Andre Ave,MOUNTAIN VIEW,CA,94040.0,2725000.0,4.0,2.0,MOUNTAIN VIEW,2219.0,8250.0,1964.0,983.0,1228.0,,Sold,,,http://www.redfin.com/CA/Mountain-View/1193-Andre-Ave-94040/home/1751530,MLSListings,ML81715745,N,Y,37.3625152,-122.0695185
73,PAST SALE,May-1-2017,Single Family Residential,460 Eunice Ave,MOUNTAIN VIEW,CA,94040.0,2500000.0,3.0,2.0,MOUNTAIN VIEW,1887.0,7630.0,1965.0,1475.0,1325.0,,Sold,,,http://www.redfin.com/CA/Mountain-View/460-Eunice-Ave-94040/home/1751571,MLSListings,ML81643532,N,Y,37.3700566,-122.0720043
74,PAST SALE,January-8-2021,Townhouse,133 Ortega Ave,MOUNTAIN VIEW,CA,94040.0,1444500.0,3.0,2.5,MOUNTAIN VIEW,1725.0,2100.0,1978.0,127.0,837.0,525.0,Sold,,,http://www.redfin.com/CA/Mountain-View/133-Ortega-Ave-94040/home/2121128,MLSListings,ML81816657,N,Y,37.402088799999994,-122.1027281
75,PAST SALE,August-30-2019,Mobile/Manufactured Home,191 E El Camino Real #299,MOUNTAIN VIEW,CA,94040.0,239000.0,2.0,2.0,MOUNTAIN VIEW,960.0,,1999.0,624.0,249.0,,Sold,,,http://www.redfin.com/CA/Mountain-View/191-El-Camino-Real-94040/unit-299/home/590742,MLSListings,ML81761128,N,Y,37.3786032,-122.0690642
76,PAST SALE,September-2-2020,Townhouse,909 Camille Ln,MOUNTAIN VIEW,CA,94040.0,1390000.0,2.0,2.5,MOUNTAIN VIEW,1336.0,1070.0,2003.0,255.0,1040.0,325.0,Sold,,,http://www.redfin.com/CA/Mountain-View/909-Camille-Ln-94040/home/1565276,MLSListings,ML81806349,N,Y,37.383027500000004,-122.08038549999999
77,PAST SALE,August-6-2020,Vacant Land,129 Fair Oaks St,MOUNTAIN VIEW,CA,94040.0,2300000.0,,,MOUNTAIN VIEW,,8481.0,,282.0,,,Sold,,,http://www.redfin.com/CA/Mountain-View/129-Fair-Oaks-St-94040/home/12171559,MLSListings,ML81792913,N,Y,37.402404,-122.098676
78,PAST SALE,December-2-2016,Single Family Residential,1235 Brookdale Ave,MOUNTAIN VIEW,CA,94040.0,1950000.0,4.0,3.0,MOUNTAIN VIEW,2350.0,9920.0,1949.0,1625.0,830.0,,Sold,,,http://www.redfin.com/CA/Mountain-View/1235-Brookdale-Ave-94040/home/621690,MLSListings,ML81630134,N,Y,37.3799332,-122.08971399999999
79,PAST SALE,September-22-2020,Single Family Residential,225 Lauella Ct,MOUNTAIN VIEW,CA,94041.0,2000000.0,3.0,2.0,MOUNTAIN VIEW,1432.0,6717.0,1953.0,235.0,1397.0,,Sold,,,http://www.redfin.com/CA/Mountain-View/225-Lauella-Ct-94041/home/1044154,MLSListings,ML81805982,N,Y,37.3982963,-122.0922437
80,PAST SALE,April-11-2019,Condo/Co-op,1915 Mount Vernon Ct #8,MOUNTAIN VIEW,CA,94040.0,770000.0,2.0,1.0,MOUNTAIN VIEW,1056.0,1014.0,1964.0,765.0,729.0,550.0,Sold,,,http://www.redfin.com/CA/Mountain-View/1915-Mt-Vernon-Ct-94040/unit-8/home/1602161,MLSListings,ML81737923,N,Y,37.395667700000004,-122.0951398
81,PAST SALE,February-27-2020,Single Family Residential,2003 Sunnyview Ln,MOUNTAIN VIEW,CA,94040.0,2000000.0,5.0,4.5,MOUNTAIN VIEW,3172.0,10222.0,2019.0,443.0,631.0,,Sold,,,http://www.redfin.com/CA/Mountain-View/2003-Sunnyview-Ln-94040/home/564652,MLSListings,ML81779708,N,Y,37.3736726,-122.0737576
82,PAST SALE,May-26-2017,Condo/Co-op,2255 Showers Dr #252,MOUNTAIN VIEW,CA,94040.0,870000.0,2.0,1.0,MOUNTAIN VIEW,814.0,814.0,1999.0,1450.0,1069.0,316.0,Sold,,,http://www.redfin.com/CA/Mountain-View/2255-Showers-Dr-94040/unit-252/home/12172196,MLSListings,ML81647682,N,Y,37.4071408,-122.1079311
83,PAST SALE,October-12-2017,Single Family Residential,1038 Nilda Ave,MOUNTAIN VIEW,CA,94040.0,2320000.0,3.0,1.5,MOUNTAIN VIEW,1485.0,9010.0,1951.0,1311.0,1562.0,,Sold,,,http://www.redfin.com/CA/Mountain-View/1038-Nilda-Ave-94040/home/1827708,MLSListings,ML81679564,N,Y,37.3822301,-122.07963889999999
84,PAST SALE,January-17-2019,Condo/Co-op,255 S Rengstorff Ave #45,MOUNTAIN VIEW,CA,94040.0,1030000.0,3.0,2.0,MOUNTAIN VIEW,1292.0,1395.0,1965.0,849.0,797.0,586.0,Sold,,,http://www.redfin.com/CA/Mountain-View/255-S-Rengstorff-Ave-94040/unit-45/home/616926,MLSListings,ML81730623,N,Y,37.4000438,-122.09900079999998
85,PAST SALE,May-15-2019,Single Family Residential,1185 Fordham Way,MOUNTAIN VIEW,CA,94040.0,2840000.0,3.0,2.0,MOUNTAIN VIEW,1608.0,8947.0,1954.0,731.0,1766.0,,Sold,,,http://www.redfin.com/CA/Mountain-View/1185-Fordham-Way-94040/home/1228462,MLSListings,ML81746638,N,Y,37.37926289999999,-122.0924878
86,PAST SALE,June-12-2020,Condo/Co-op,255 S Rengstorff Ave #164,MOUNTAIN VIEW,CA,94040.0,548000.0,1.0,1.0,MOUNTAIN VIEW,551.0,,1965.0,337.0,995.0,422.0,Sold,,,http://www.redfin.com/CA/Mountain-View/255-S-Rengstorff-Ave-94040/unit-164/home/1113902,MLSListings,ML81796529,N,Y,37.4000438,-122.09900079999998
87,PAST SALE,January-24-2017,Single Family Residential,284 S Rengstorff Ave,MOUNTAIN VIEW,CA,94040.0,950000.0,2.0,1.0,MOUNTAIN VIEW,1214.0,4621.0,1930.0,1572.0,783.0,,Sold,,,http://www.redfin.com/CA/Mountain-View/284-S-Rengstorff-Ave-94040/home/12171546,MLSListings,ML81625896,N,Y,37.4004332,-122.0994331
88,PAST SALE,June-15-2018,Other,1744 Marich Way,MOUNTAIN VIEW,CA,94040.0,2650000.0,2.0,2.0,MOUNTAIN VIEW,3131.0,10000.0,1957.0,1065.0,846.0,,Sold,,,http://www.redfin.com/CA/Mountain-View/1744-Marich-Way-94040/home/1327159,MLSListings,ML81704002,N,Y,37.3910867,-122.0968592
89,PAST SALE,October-6-2016,Mobile/Manufactured Home,191 E EL CAMINO REAL Space 295 #295,MOUNTAIN VIEW,CA,94040.0,225000.0,2.0,2.0,MOUNTAIN VIEW,990.0,,1999.0,1682.0,227.0,,Sold,,,http://www.redfin.com/CA/Mountain-View/191-E-El-Camino-Real-94040/unit-295/home/171908022,MLSListings,ML81597675,N,Y,37.3785654,-122.069854
90,PAST SALE,October-22-2019,Single Family Residential,12 Starr Way,MOUNTAIN VIEW,CA,94040.0,3900000.0,5.0,4.5,MOUNTAIN VIEW,3490.0,11964.0,2017.0,571.0,1117.0,,Sold,,,http://www.redfin.com/CA/Mountain-View/12-Starr-Way-94040/home/641927,MLSListings,ML81753234,N,Y,37.3800882,-122.0873645
91,PAST SALE,May-31-2019,Mobile/Manufactured Home,191 E El Camino Real #127,MOUNTAIN VIEW,CA,94043.0,100000.0,2.0,1.0,MOUNTAIN VIEW,909.0,,1963.0,715.0,110.0,,Sold,,,http://www.redfin.com/CA/Mountain-View/191-E-El-Camino-Real-94040/unit-127/home/148161336,MLSListings,ML81731623,N,Y,37.3785654,-122.069854
92,PAST SALE,January-16-2020,Townhouse,155 Pacchetti Way,MOUNTAIN VIEW,CA,94040.0,1375000.0,2.0,2.5,MOUNTAIN VIEW,1080.0,666.0,1996.0,485.0,1273.0,233.0,Sold,,,http://www.redfin.com/CA/Mountain-View/155-Pacchetti-Way-94040/home/12172107,MLSListings,ML81774885,N,Y,37.4050953,-122.1079271
93,PAST SALE,February-23-2017,Townhouse,100 W El Camino Real #40,MOUNTAIN VIEW,CA,94040.0,1020000.0,2.0,2.0,MOUNTAIN VIEW,1273.0,2240.0,1981.0,1542.0,801.0,433.0,Sold,,,http://www.redfin.com/CA/Mountain-View/100-W-El-Camino-Real-94040/unit-40/home/1354407,MLSListings,ML81635368,N,Y,37.3829005,-122.0769449
94,PAST SALE,January-31-2019,Condo/Co-op,100 W El Camino Real #52,MOUNTAIN VIEW,CA,94040.0,1089000.0,2.0,2.0,MOUNTAIN VIEW,1199.0,2240.0,1981.0,835.0,908.0,443.0,Sold,,,http://www.redfin.com/CA/Mountain-View/100-W-El-Camino-Real-94040/unit-52/home/618392,MLSListings,ML81734061,N,Y,37.382696,-122.07581840000002
95,PAST SALE,May-4-2020,Single Family Residential,1143 Creek Way,MOUNTAIN VIEW,CA,94040.0,2250000.0,4.0,3.5,MOUNTAIN VIEW,2173.0,2272.0,2009.0,376.0,1035.0,70.0,Sold,,,http://www.redfin.com/CA/Mountain-View/1143-Creek-Way-94040/home/23044942,MLSListings,ML81787525,N,Y,37.3838394,-122.08923109999999
96,PAST SALE,May-11-2017,Townhouse,169 Ortega Ave,MOUNTAIN VIEW,CA,94040.0,1500000.0,3.0,2.5,MOUNTAIN VIEW,1755.0,2492.0,1978.0,1465.0,855.0,457.0,Sold,,,http://www.redfin.com/CA/Mountain-View/169-Ortega-Ave-94040/home/12171908,MLSListings,ML81645585,N,Y,37.4018727,-122.10111950000001
97,PAST SALE,April-30-2021,Single Family Residential,1142 Fordham Way,MOUNTAIN VIEW,CA,94040.0,3550000.0,3.0,2.0,MOUNTAIN VIEW,1967.0,12926.0,1954.0,15.0,1805.0,,Sold,,,http://www.redfin.com/CA/Mountain-View/1142-Fordham-Way-94040/home/1246787,MLSListings,ML81835104,N,Y,37.3795226,-122.09082350000001
98,PAST SALE,August-2-2016,Single Family Residential,115 College Ave,MOUNTAIN VIEW,CA,94040.0,728000.0,1.0,1.0,MOUNTAIN VIEW,638.0,3100.0,1930.0,1747.0,1141.0,,Sold,,,http://www.redfin.com/CA/Mountain-View/115-College-Ave-94040/home/2120615,MLSListings,ML81590684,N,Y,37.403110999999996,-122.0996152
99,PAST SALE,June-24-2020,Condo/Co-op,1910 Mount Vernon Ct #11,MOUNTAIN VIEW,CA,94040.0,635000.0,1.0,1.0,MOUNTAIN VIEW,884.0,,1963.0,325.0,718.0,610.0,Sold,,,http://www.redfin.com/CA/Mountain-View/1910-Mt-Vernon-Ct-94040/unit-11/home/1867359,MLSListings,ML81792314,N,Y,37.396112,-122.09494699999999
100,PAST SALE,January-27-2020,Single Family Residential,1633 Hollingsworth Dr,MOUNTAIN VIEW,CA,94040.0,2663211.0,5.0,2.5,MOUNTAIN VIEW,2398.0,10472.0,1948.0,474.0,1111.0,,Sold,,,http://www.redfin.com/CA/Mountain-View/1633-Hollingsworth-Dr-94040/home/979942,MLSListings,ML81770172,N,Y,37.3879836,-122.0945959
101,PAST SALE,October-13-2016,Townhouse,1909 Milano Way,MOUNTAIN VIEW,CA,94040.0,1700000.0,3.0,2.5,MOUNTAIN VIEW,1977.0,3084.0,1979.0,1675.0,860.0,465.0,Sold,,,http://www.redfin.com/CA/Mountain-View/1909-Milano-Way-94040/home/1542219,MLSListings,ML81599834,N,Y,37.3681642,-122.08647649999999
102,PAST SALE,June-7-2018,Single Family Residential,1377 Todd St,MOUNTAIN VIEW,CA,94040.0,2350000.0,3.0,1.0,MOUNTAIN VIEW,1203.0,5022.0,1953.0,1073.0,1953.0,,Sold,,,http://www.redfin.com/CA/Mountain-View/1377-Todd-St-94040/home/642203,MLSListings,ML81704826,N,Y,37.3854381,-122.0916219
103,PAST SALE,September-29-2016,Single Family Residential,143 Laurel Way,MOUNTAIN VIEW,CA,94040.0,1473888.0,3.0,2.5,MOUNTAIN VIEW,1339.0,2012.0,1996.0,1689.0,1101.0,72.0,Sold,,,http://www.redfin.com/CA/Mountain-View/143-Laurel-Way-94040/home/2121422,MLSListings,ML81587674,N,Y,37.4051934,-122.1075554
104,PAST SALE,November-21-2018,Single Family Residential,1552 Gilmore St,MOUNTAIN VIEW,CA,94040.0,3250000.0,4.0,3.0,MOUNTAIN VIEW,1777.0,5003.0,1954.0,906.0,1829.0,,Sold,,,http://www.redfin.com/CA/Mountain-View/1552-Gilmore-St-94040/home/642183,MLSListings,ML81728851,N,Y,37.385183000000005,-122.09399669999999
105,PAST SALE,March-15-2018,Single Family Residential,1372 Nilda Ave,MOUNTAIN VIEW,CA,94040.0,2702000.0,3.0,2.0,MOUNTAIN VIEW,1742.0,6219.0,1955.0,1157.0,1551.0,,Sold,,,http://www.redfin.com/CA/Mountain-View/1372-Nilda-Ave-94040/home/1459854,MLSListings,ML81692433,N,Y,37.377577,-122.07970549999999
106,PAST SALE,November-27-2018,Single Family Residential,616 Lola Ln,MOUNTAIN VIEW,CA,94040.0,2750000.0,4.0,2.0,MOUNTAIN VIEW,1609.0,6528.0,1956.0,900.0,1709.0,,Sold,,,http://www.redfin.com/CA/Mountain-View/616-Lola-Ln-94040/home/1137884,MLSListings,ML81728131,N,Y,37.376797100000005,-122.08234640000002
107,PAST SALE,March-22-2019,Single Family Residential,1487 Todd St,MOUNTAIN VIEW,CA,94040.0,2660000.0,3.0,2.0,MOUNTAIN VIEW,1404.0,5045.0,1953.0,785.0,1895.0,,Sold,,,http://www.redfin.com/CA/Mountain-View/1487-Todd-St-94040/home/1439823,MLSListings,ML81740552,N,Y,37.3854396,-122.09308700000001
108,PAST SALE,August-10-2018,Single Family Residential,3372 Villa Robleda Dr,MOUNTAIN VIEW,CA,94040.0,2625000.0,3.0,2.5,MOUNTAIN VIEW,2287.0,8001.0,1969.0,1009.0,1148.0,,Sold,,,http://www.redfin.com/CA/Mountain-View/3372-Villa-Robleda-Dr-94040/home/647427,MLSListings,ML81712855,N,Y,37.3621598,-122.0703841
109,PAST SALE,March-22-2019,Single Family Residential,1106 Boranda Ave,MOUNTAIN VIEW,CA,94040.0,2150000.0,3.0,2.5,MOUNTAIN VIEW,1747.0,3345.0,1997.0,785.0,1231.0,145.0,Sold,,,http://www.redfin.com/CA/Mountain-View/1106-Boranda-Ave-94040/home/1524222,MLSListings,ML81738223,N,Y,37.381159999999994,-122.082568
110,PAST SALE,August-18-2017,Single Family Residential,1563 Begen Ave,MOUNTAIN VIEW,CA,94040.0,2525000.0,5.0,3.0,MOUNTAIN VIEW,2262.0,6000.0,1955.0,1366.0,1116.0,,Sold,,,http://www.redfin.com/CA/Mountain-View/1563-Begen-Ave-94040/home/1164868,MLSListings,ML81669725,N,Y,37.377822200000004,-122.08492179999999
111,PAST SALE,May-12-2017,Condo/Co-op,255 S Rengstorff Ave #142,MOUNTAIN VIEW,CA,94040.0,560000.0,1.0,1.0,MOUNTAIN VIEW,731.0,1395.0,1965.0,1464.0,766.0,433.0,Sold,,,http://www.redfin.com/CA/Mountain-View/255-S-Rengstorff-Ave-94040/unit-142/home/618088,MLSListings,ML81645302,N,Y,37.4000438,-122.09900079999998
112,PAST SALE,October-17-2016,Single Family Residential,730 Cornelia Ct,MOUNTAIN VIEW,CA,94040.0,2500000.0,4.0,2.75,MOUNTAIN VIEW,3063.0,8751.0,2011.0,1671.0,816.0,,Sold,,,http://www.redfin.com/CA/Mountain-View/730-Cornelia-Ct-94040/home/1722922,MLSListings,ML81614550,N,Y,37.3760269,-122.084521
113,PAST SALE,July-8-2020,Single Family Residential,2206 Leland Ave,MOUNTAIN VIEW,CA,94040.0,1625000.0,3.0,2.5,MOUNTAIN VIEW,1336.0,3520.0,2019.0,311.0,1216.0,,Sold,,,http://www.redfin.com/CA/Mountain-View/2206-Leland-Ave-94040/home/17494979,MLSListings,ML81789780,N,Y,37.403556,-122.09951299999999
114,PAST SALE,June-23-2017,Single Family Residential,1107 Boranda Ave,MOUNTAIN VIEW,CA,94040.0,2650000.0,5.0,3.0,MOUNTAIN VIEW,2857.0,5439.0,1997.0,1422.0,928.0,,Sold,,,http://www.redfin.com/CA/Mountain-View/1107-Boranda-Ave-94040/home/1340283,MLSListings,ML81652066,N,Y,37.3812455,-122.08190249999998
115,PAST SALE,September-26-2016,Townhouse,100 W El Camino Real #30,MOUNTAIN VIEW,CA,94040.0,1010000.0,2.0,2.0,MOUNTAIN VIEW,1337.0,435.0,1981.0,1692.0,755.0,412.0,Sold,,,http://www.redfin.com/CA/Mountain-View/100-W-El-Camino-Real-94040/unit-30/home/1785066,MLSListings,ML81600490,N,Y,37.382825,-122.077124
116,PAST SALE,June-22-2016,Condo/Co-op,1910 Mount Vernon Ct #7,MOUNTAIN VIEW,CA,94040.0,599000.0,1.0,1.0,MOUNTAIN VIEW,910.0,910.0,1963.0,1788.0,658.0,488.0,Sold,,,http://www.redfin.com/CA/Mountain-View/1910-Mt-Vernon-Ct-94040/unit-7/home/672551,MLSListings,ML81585183,N,Y,37.396112,-122.09494699999999
117,PAST SALE,May-3-2021,Single Family Residential,860 Yardis Ct,MOUNTAIN VIEW,CA,94040.0,3800000.0,4.0,3.0,MOUNTAIN VIEW,2570.0,16552.0,1954.0,12.0,1479.0,,Sold,,,http://www.redfin.com/CA/Mountain-View/860-Yardis-Ct-94040/home/660862,MLSListings,ML81834519,N,Y,37.3666755,-122.0884551
118,PAST SALE,March-27-2019,Single Family Residential,2747 Saint Giles Ln,MOUNTAIN VIEW,CA,94040.0,2820000.0,4.0,3.0,MOUNTAIN VIEW,2008.0,8933.0,1964.0,780.0,1404.0,,Sold,,,http://www.redfin.com/CA/Mountain-View/2747-St-Giles-Ln-94040/home/993016,MLSListings,ML81739002,N,Y,37.363860100000004,-122.07164909999999
119,PAST SALE,November-7-2019,Single Family Residential,712 Hans Ave,MOUNTAIN VIEW,CA,94040.0,2060000.0,4.0,2.5,MOUNTAIN VIEW,1562.0,6000.0,1955.0,555.0,1319.0,,Sold,,,http://www.redfin.com/CA/Mountain-View/712-Hans-Ave-94040/home/1603100,MLSListings,ML81770735,N,Y,37.379365299999996,-122.08466000000001
120,PAST SALE,May-22-2017,Single Family Residential,735 Sleeper,MOUNTAIN VIEW,CA,94040.0,3000000.0,5.0,3.5,MOUNTAIN VIEW,3303.0,11753.0,1996.0,1454.0,908.0,,Sold,,,http://www.redfin.com/CA/Mountain-View/735-Sleeper-Ave-94040/home/648638,MLSListings,ML81647214,N,Y,37.3709119,-122.07116090000002
121,PAST SALE,May-29-2019,Single Family Residential,1341 Todd St,MOUNTAIN VIEW,CA,94040.0,3302000.0,4.0,3.0,MOUNTAIN VIEW,1984.0,5022.0,2012.0,717.0,1664.0,,Sold,,,http://www.redfin.com/CA/Mountain-View/1341-Todd-St-94040/home/1654095,MLSListings,ML81749791,N,Y,37.3854393,-122.0909994
122,PAST SALE,August-15-2016,Condo/Co-op,255 S Rengstorff Ave #123,MOUNTAIN VIEW,CA,94040.0,650000.0,2.0,1.0,MOUNTAIN VIEW,935.0,1395.0,1965.0,1734.0,695.0,485.0,Sold,,,http://www.redfin.com/CA/Mountain-View/255-S-Rengstorff-Ave-94040/unit-123/home/688739,MLSListings,ML81589360,N,Y,37.4000438,-122.09900079999998
123,PAST SALE,November-3-2020,Single Family Residential,2742 Saint Giles Ln,MOUNTAIN VIEW,CA,94040.0,3900000.0,5.0,3.5,MOUNTAIN VIEW,2892.0,9128.0,2013.0,193.0,1349.0,,Sold,,,http://www.redfin.com/CA/Mountain-View/2742-St-Giles-Ln-94040/home/52672135,MLSListings,ML81813800,N,Y,37.364472,-122.07208390000001
124,PAST SALE,October-2-2020,Single Family Residential,1425 Gilmore St,MOUNTAIN VIEW,CA,94040.0,2175000.0,3.0,2.0,MOUNTAIN VIEW,1742.0,5322.0,1952.0,225.0,1249.0,,Sold,,,http://www.redfin.com/CA/Mountain-View/1425-Gilmore-St-94040/home/642088,MLSListings,ML81807789,N,Y,37.3847769,-122.0921388
125,PAST SALE,July-28-2020,Condo/Co-op,550 Ortega Ave Unit A406,MOUNTAIN VIEW,CA,94040.0,1108000.0,2.0,2.0,MOUNTAIN VIEW,1076.0,,1992.0,291.0,1030.0,442.0,Sold,,,http://www.redfin.com/CA/Mountain-View/550-Ortega-Ave-94040/unit-A406/home/12172011,MLSListings,ML81795088,N,Y,37.3991561,-122.10606740000001
126,PAST SALE,December-27-2017,Single Family Residential,283 Carmelita Dr,MOUNTAIN VIEW,CA,94040.0,2450000.0,3.0,2.0,MOUNTAIN VIEW,1537.0,9298.0,1943.0,1235.0,1594.0,,Sold,,,http://www.redfin.com/CA/Mountain-View/283-Carmelita-Dr-94040/home/1576045,MLSListings,ML81685834,N,Y,37.375665399999995,-122.0729364
127,PAST SALE,September-30-2019,Single Family Residential,1198 Maria Privada,MOUNTAIN VIEW,CA,94040.0,1770000.0,3.0,2.0,MOUNTAIN VIEW,1703.0,5558.0,1986.0,593.0,1039.0,279.0,Sold,,,http://www.redfin.com/CA/Mountain-View/1198-Maria-Privada-94040/home/1827759,MLSListings,ML81765657,N,Y,37.371263899999995,-122.063069
128,PAST SALE,February-15-2017,Single Family Residential,1515 Gilmore St,MOUNTAIN VIEW,CA,94040.0,2015000.0,3.0,2.0,MOUNTAIN VIEW,1306.0,4929.0,1954.0,1550.0,1543.0,,Sold,,,http://www.redfin.com/CA/Mountain-View/1515-Gilmore-St-94040/home/1223798,MLSListings,ML81635941,N,Y,37.3847936,-122.0934864
129,PAST SALE,December-31-2020,Condo/Co-op,2111 Latham St #201,Mountain View,CA,94040.0,1012000.0,3.0,2.0,Mountain View,1382.0,,1978.0,135.0,732.0,545.0,Sold,,,http://www.redfin.com/CA/Mountain-View/2111-Latham-St-94040/unit-201/home/12171915,San Francisco MLS,509153,N,Y,37.3968671,-122.1019848
130,PAST SALE,November-14-2019,Single Family Residential,868 Tulane Ct,MOUNTAIN VIEW,CA,94040.0,2260000.0,5.0,2.5,MOUNTAIN VIEW,1813.0,5699.0,1952.0,548.0,1247.0,,Sold,,,http://www.redfin.com/CA/Mountain-View/868-Tulane-Ct-94040/home/1462404,MLSListings,ML81771799,N,Y,37.3756031,-122.08989150000001
131,PAST SALE,August-28-2017,Townhouse,1128 Boranda Ave,MOUNTAIN VIEW,CA,94040.0,1680000.0,4.0,3.0,MOUNTAIN VIEW,2112.0,2635.0,2007.0,1356.0,795.0,476.0,Sold,,,http://www.redfin.com/CA/Mountain-View/1128-Boranda-Ave-94040/home/17289857,MLSListings,ML81669583,N,Y,37.380767999999996,-122.082621
132,PAST SALE,November-23-2020,Single Family Residential,1184 Solana Dr,MOUNTAIN VIEW,CA,94040.0,2400000.0,3.0,1.0,MOUNTAIN VIEW,974.0,10186.0,1952.0,173.0,2464.0,,Sold,,,http://www.redfin.com/CA/Mountain-View/1184-Solana-Dr-94040/home/632770,MLSListings,ML81816673,N,Y,37.3894281,-122.1038265
133,PAST SALE,February-21-2020,Condo/Co-op,49 Showers Dr Unit W 311,MOUNTAIN VIEW,CA,94040.0,1200000.0,2.0,2.0,MOUNTAIN VIEW,1206.0,,1974.0,449.0,995.0,485.0,Sold,,,http://www.redfin.com/CA/Mountain-View/49-Showers-Dr-94040/unit-W311/home/12171728,MLSListings,ML81779821,N,Y,37.4050369,-122.103554
134,PAST SALE,October-27-2016,Condo/Co-op,2211 Latham St #322,MOUNTAIN VIEW,CA,94040.0,826000.0,2.0,2.0,MOUNTAIN VIEW,1206.0,1250.0,1978.0,1661.0,685.0,420.0,Sold,,,http://www.redfin.com/CA/Mountain-View/2211-Latham-St-94040/unit-322/home/2121193,MLSListings,ML81614766,N,Y,37.3972947,-122.1030499
135,PAST SALE,April-23-2021,Single Family Residential,965 Eichler Dr,MOUNTAIN VIEW,CA,94040.0,3225000.0,4.0,2.5,MOUNTAIN VIEW,1912.0,8991.0,1972.0,22.0,1687.0,,Sold,,,http://www.redfin.com/CA/Mountain-View/965-Eichler-Dr-94040/home/1174984,MLSListings,ML81835855,N,Y,37.382253799999994,-122.08935890000002
136,PAST SALE,October-20-2017,Condo/Co-op,2025 California St #47,MOUNTAIN VIEW,CA,94040.0,550000.0,1.0,1.0,MOUNTAIN VIEW,640.0,720.0,1965.0,1303.0,859.0,390.0,Sold,,,http://www.redfin.com/CA/Mountain-View/2025-California-St-94040/unit-47/home/934409,MLSListings,ML81681093,N,Y,37.3980861,-122.0982699
137,PAST SALE,July-14-2016,Condo/Co-op,255 S Rengstorff Ave #146,MOUNTAIN VIEW,CA,94040.0,880000.0,3.0,2.0,MOUNTAIN VIEW,1292.0,1393.0,1965.0,1766.0,681.0,558.0,Sold,,,http://www.redfin.com/CA/Mountain-View/255-S-Rengstorff-Ave-94040/unit-146/home/1114588,MLSListings,ML81583417,N,Y,37.4000438,-122.09900079999998
138,PAST SALE,December-23-2016,Single Family Residential,340 Mansfield Dr,MOUNTAIN VIEW,CA,94040.0,2850000.0,4.0,3.0,MOUNTAIN VIEW,2590.0,8262.0,2011.0,1604.0,1100.0,56.0,Sold,,,http://www.redfin.com/CA/Mountain-View/340-Mansfield-Dr-94040/home/41395790,MLSListings,ML81633190,N,Y,37.3649275,-122.07562730000001
139,PAST SALE,January-24-2020,Condo/Co-op,1945 Mount Vernon Ct #2,Mountain View,CA,94040.0,635000.0,1.0,1.0,Mountain View,810.0,924.0,1964.0,477.0,784.0,550.0,Sold,,,http://www.redfin.com/CA/Mountain-View/1945-Mt-Vernon-Ct-94040/unit-2/home/1704680,CRMLS,SB19260851,N,Y,37.3962344,-122.09639320000001
140,PAST SALE,February-12-2019,Condo/Co-op,938 Clark Ave #40,MOUNTAIN VIEW,CA,94040.0,925000.0,2.0,2.0,MOUNTAIN VIEW,1069.0,871.0,1978.0,823.0,865.0,510.0,Sold,,,http://www.redfin.com/CA/Mountain-View/938-Clark-Ave-94040/unit-40/home/1392581,MLSListings,ML81737163,N,Y,37.3926924,-122.0999422
141,PAST SALE,August-28-2017,Townhouse,96 Freedom Ln,MOUNTAIN VIEW,CA,94040.0,1430000.0,3.0,3.0,MOUNTAIN VIEW,1292.0,665.0,1996.0,1356.0,1107.0,215.0,Sold,,,http://www.redfin.com/CA/Mountain-View/96-Freedom-Ln-94040/home/2121444,MLSListings,ML81669115,N,Y,37.4054098,-122.1074852
142,PAST SALE,April-17-2017,Condo/Co-op,255 S Rengstorff Ave #26,MOUNTAIN VIEW,CA,94040.0,737000.0,2.0,1.0,MOUNTAIN VIEW,935.0,1395.0,1965.0,1489.0,788.0,495.0,Sold,,,http://www.redfin.com/CA/Mountain-View/255-S-Rengstorff-Ave-94040/unit-26/home/1136996,MLSListings,ML81641677,N,Y,37.4000438,-122.09900079999998
143,PAST SALE,April-16-2021,Single Family Residential,1838 Limetree Ln,MOUNTAIN VIEW,CA,94040.0,2915000.0,3.0,2.0,MOUNTAIN VIEW,1792.0,6966.0,1956.0,29.0,1627.0,,Sold,,,http://www.redfin.com/CA/Mountain-View/1838-Limetree-Ln-94040/home/1575890,MLSListings,ML81830365,N,Y,37.3699256,-122.09532809999999
144,PAST SALE,May-31-2017,Single Family Residential,107 Waverly Pl,MOUNTAIN VIEW,CA,94040.0,2000000.0,3.0,3.0,MOUNTAIN VIEW,1770.0,8175.0,1964.0,1445.0,1130.0,,Sold,,,http://www.redfin.com/CA/Mountain-View/107-Waverly-Pl-94040/home/1187595,MLSListings,ML81647587,N,Y,37.35923579999999,-122.0775749
145,PAST SALE,April-19-2021,Condo/Co-op,1033 Crestview Dr #206,Mountain View,CA,94040.0,950000.0,2.0,2.0,Mountain View,1140.0,,1969.0,26.0,833.0,470.0,Sold,,,http://www.redfin.com/CA/Mountain-View/1033-Crestview-Dr-94040/unit-206/home/1240286,San Francisco MLS,504775,N,Y,37.372731200000004,-122.0598632
146,PAST SALE,October-14-2016,Single Family Residential,2007 Sunnyview Ln,MOUNTAIN VIEW,CA,94040.0,2697750.0,4.0,3.5,MOUNTAIN VIEW,2857.0,8056.0,2010.0,1674.0,944.0,,Sold,,,http://www.redfin.com/CA/Mountain-View/2007-Sunnyview-Ln-94040/home/1045229,MLSListings,ML81614551,N,Y,37.3732278,-122.0734913
147,PAST SALE,August-10-2018,Condo/Co-op,1945 Mount Vernon Ct #4,MOUNTAIN VIEW,CA,94040.0,830000.0,2.0,2.0,MOUNTAIN VIEW,1086.0,1173.0,1964.0,1009.0,764.0,518.0,Sold,,,http://www.redfin.com/CA/Mountain-View/1945-Mt-Vernon-Ct-94040/unit-4/home/616636,MLSListings,ML81714225,N,Y,37.3962344,-122.09639320000001
148,PAST SALE,August-14-2017,Multi-Family (2-4 Unit),842 Greenview Dr,MOUNTAIN VIEW,CA,94040.0,1920000.0,5.0,,MOUNTAIN VIEW,2845.0,7500.0,1963.0,1370.0,675.0,,Sold,,,http://www.redfin.com/CA/Mountain-View/842-Greenview-Dr-94040/home/1113318,MLSListings,ML81670366,N,Y,37.373639000000004,-122.062467
149,PAST SALE,November-4-2016,Condo/Co-op,49 Showers Dr Unit J228,MOUNTAIN VIEW,CA,94040.0,810000.0,2.0,2.0,MOUNTAIN VIEW,1206.0,1881.0,1977.0,1653.0,672.0,392.0,Sold,,,http://www.redfin.com/CA/Mountain-View/49-Showers-Dr-94040/unit-J228/home/108972379,MLSListings,ML81613197,N,Y,37.4043951,-122.10384779999998
150,PAST SALE,August-29-2018,Single Family Residential,1408 Marigold Ct,MOUNTAIN VIEW,CA,94040.0,3390000.0,4.0,3.0,MOUNTAIN VIEW,2246.0,6144.0,2010.0,990.0,1509.0,,Sold,,,http://www.redfin.com/CA/Mountain-View/1408-Marigold-Ct-94040/home/35653903,MLSListings,ML81720946,N,Y,37.3806953,-122.092155
151,PAST SALE,September-26-2016,Single Family Residential,541 Leona Ln,MOUNTAIN VIEW,CA,94040.0,2650000.0,4.0,3.0,MOUNTAIN VIEW,2249.0,6551.0,1956.0,1692.0,1178.0,,Sold,,,http://www.redfin.com/CA/Mountain-View/541-Leona-Ln-94040/home/769128,MLSListings,ML81601362,N,Y,37.376676,-122.0809483
152,PAST SALE,February-3-2017,Single Family Residential,1165 Elena Privada,MOUNTAIN VIEW,CA,94040.0,1833000.0,3.0,2.5,MOUNTAIN VIEW,2261.0,3800.0,1986.0,1562.0,811.0,240.0,Sold,,,http://www.redfin.com/CA/Mountain-View/1165-Elena-Privada-94040/home/821735,MLSListings,ML81635152,N,Y,37.3705214,-122.0611096
153,PAST SALE,September-7-2020,Single Family Residential,13080 Lorene Ct,MOUNTAIN VIEW,CA,94040.0,2680000.0,3.0,2.0,MOUNTAIN VIEW,1838.0,11120.0,1956.0,250.0,1458.0,,Sold,,,http://www.redfin.com/CA/Mountain-View/13080-Lorene-Ct-94040/home/1083714,MLSListings,ML81800459,N,Y,37.3682109,-122.06929650000001
154,PAST SALE,May-12-2021,Single Family Residential,1393 Cuernavaca Circulo,MOUNTAIN VIEW,CA,94040.0,2580000.0,4.0,2.5,MOUNTAIN VIEW,2249.0,4550.0,1986.0,3.0,1147.0,310.0,Sold,,,http://www.redfin.com/CA/Mountain-View/1393-Cuernavaca-Circulo-94040/home/651104,MLSListings,ML81837551,N,Y,37.372616,-122.06306000000001
155,PAST SALE,March-2-2021,Single Family Residential,270 Barbara Ave,MOUNTAIN VIEW,CA,94040.0,2200000.0,3.0,2.0,MOUNTAIN VIEW,1196.0,6098.0,1955.0,74.0,1839.0,,Sold,,,http://www.redfin.com/CA/Mountain-View/270-Barbara-Ave-94040/home/1355010,MLSListings,ML81827366,N,Y,37.3773969,-122.0781298
156,PAST SALE,March-2-2021,Townhouse,907 Camille Ln,MOUNTAIN VIEW,CA,94040.0,1750000.0,3.0,3.5,MOUNTAIN VIEW,2022.0,1127.0,2003.0,74.0,865.0,326.0,Sold,,,http://www.redfin.com/CA/Mountain-View/907-Camille-Ln-94040/home/1304668,MLSListings,ML81826723,N,Y,37.383117600000006,-122.0803375
157,PAST SALE,October-27-2017,Multi-Family (2-4 Unit),1023 Dale Ave,MOUNTAIN VIEW,CA,94040.0,1765000.0,5.0,3.0,MOUNTAIN VIEW,2379.0,7100.0,1963.0,1296.0,742.0,,Sold,,,http://www.redfin.com/CA/Mountain-View/1023-Dale-Ave-94040/home/1137780,MLSListings,ML81675552,N,Y,37.374451,-122.06281899999999
158,PAST SALE,June-1-2017,Single Family Residential,773 Lola Ln,MOUNTAIN VIEW,CA,94040.0,2280000.0,3.0,2.0,MOUNTAIN VIEW,1525.0,6500.0,1955.0,1444.0,1495.0,,Sold,,,http://www.redfin.com/CA/Mountain-View/773-Lola-Ln-94040/home/1763407,MLSListings,ML81646560,N,Y,37.3748709,-122.084946
159,PAST SALE,February-12-2019,Single Family Residential,1672 Notre Dame Dr,MOUNTAIN VIEW,CA,94040.0,2075000.0,3.0,2.0,MOUNTAIN VIEW,1240.0,5700.0,1954.0,823.0,1673.0,,Sold,,,http://www.redfin.com/CA/Mountain-View/1672-Notre-Dame-Dr-94040/home/642153,MLSListings,ML81735410,N,Y,37.3749812,-122.0945515
160,PAST SALE,August-20-2019,Multi-Family (5+ Unit),1820 Ednamary Way,MOUNTAIN VIEW,CA,94040.0,2810000.0,3.0,,MOUNTAIN VIEW,4449.0,6075.0,1959.0,634.0,632.0,,Sold,,,http://www.redfin.com/CA/Mountain-View/1820-Ednamary-Way-94040/home/941457,MLSListings,ML81753672,N,Y,37.3924174,-122.0977912
161,PAST SALE,June-30-2020,Multi-Family (2-4 Unit),1736 Marich Way,MOUNTAIN VIEW,CA,94040.0,2005000.0,5.0,,MOUNTAIN VIEW,2573.0,6292.0,1952.0,319.0,779.0,,Sold,,,http://www.redfin.com/CA/Mountain-View/1736-Marich-Way-94040/home/897043,MLSListings,ML81787389,N,Y,37.3910923,-122.0965929
162,PAST SALE,August-14-2017,Single Family Residential,1758 Marich Way,MOUNTAIN VIEW,CA,94040.0,2275000.0,4.0,2.0,MOUNTAIN VIEW,2700.0,10001.0,1953.0,1370.0,843.0,,Sold,,,http://www.redfin.com/CA/Mountain-View/1758-Marich-Way-94040/home/1447328,MLSListings,ML81585191,N,Y,37.3911441,-122.0971033
163,PAST SALE,June-4-2018,Single Family Residential,1402 Nilda Ave,MOUNTAIN VIEW,CA,94040.0,2800000.0,3.0,2.0,MOUNTAIN VIEW,1793.0,6566.0,1955.0,1076.0,1562.0,,Sold,,,http://www.redfin.com/CA/Mountain-View/1402-Nilda-Ave-94040/home/646637,MLSListings,ML81701201,N,Y,37.3769888,-122.0797277
164,PAST SALE,June-28-2016,Single Family Residential,1054 Morton Ct,MOUNTAIN VIEW,CA,94040.0,1800000.0,4.0,2.0,MOUNTAIN VIEW,1709.0,7980.0,1954.0,1782.0,1053.0,,Sold,,,http://www.redfin.com/CA/Mountain-View/1054-Morton-Ct-94040/home/1659538,MLSListings,ML81584648,N,Y,37.391444799999995,-122.10125259999998
165,PAST SALE,October-25-2018,Single Family Residential,1111 Solana Dr,MOUNTAIN VIEW,CA,94040.0,1851000.0,3.0,1.0,MOUNTAIN VIEW,974.0,6019.0,1951.0,933.0,1900.0,,Sold,,,http://www.redfin.com/CA/Mountain-View/1111-Solana-Dr-94040/home/935096,MLSListings,ML81723842,N,Y,37.3907284,-122.1026283
166,PAST SALE,September-1-2020,Mobile/Manufactured Home,1075 Space Park Way #338,MOUNTAIN VIEW,CA,94043.0,210000.0,3.0,2.0,MOUNTAIN VIEW,1512.0,,1993.0,256.0,139.0,,Sold,,,http://www.redfin.com/CA/Mountain-View/1075-Park-Dr-94040/unit-338/home/1470602,MLSListings,ML81781344,N,Y,37.3861507,-122.0870828
167,PAST SALE,May-25-2018,Condo/Co-op,255 S Rengstorff Ave #144,MOUNTAIN VIEW,CA,94040.0,1170000.0,3.0,2.0,MOUNTAIN VIEW,1292.0,1217.0,1965.0,1086.0,906.0,586.0,Sold,,,http://www.redfin.com/CA/Mountain-View/255-S-Rengstorff-Ave-94040/unit-144/home/722385,MLSListings,ML81701070,N,Y,37.4000438,-122.09900079999998
168,PAST SALE,October-17-2019,Townhouse,130 Alley Way,MOUNTAIN VIEW,CA,94040.0,1375000.0,2.0,2.5,MOUNTAIN VIEW,1362.0,1512.0,1996.0,576.0,1010.0,222.0,Sold,,,http://www.redfin.com/CA/Mountain-View/130-Alley-Way-94040/home/12172095,MLSListings,ML81767251,N,Y,37.405875,-122.10564
169,PAST SALE,August-30-2019,Single Family Residential,295 Hans Ave,MOUNTAIN VIEW,CA,94040.0,2050000.0,3.0,2.0,MOUNTAIN VIEW,1248.0,7038.0,1954.0,624.0,1643.0,,Sold,,,http://www.redfin.com/CA/Mountain-View/295-Hans-Ave-94040/home/1351102,MLSListings,ML81760496,N,Y,37.3789802,-122.07897309999998
170,PAST SALE,May-25-2018,Condo/Co-op,400 Ortega Ave #219,MOUNTAIN VIEW,CA,94040.0,900000.0,2.0,1.0,MOUNTAIN VIEW,960.0,900.0,1975.0,1086.0,938.0,505.0,Sold,,,http://www.redfin.com/CA/Mountain-View/400-Ortega-Ave-94040/unit-219/home/2121059,MLSListings,ML81695367,N,Y,37.3994282,-122.1056794
171,PAST SALE,August-17-2020,Mobile/Manufactured Home,191 E El Camino Real #261,MOUNTAIN VIEW,CA,94040.0,255000.0,3.0,2.0,MOUNTAIN VIEW,1344.0,,1992.0,271.0,190.0,,Sold,,,http://www.redfin.com/CA/Mountain-View/191-E-El-Camino-Real-94040/unit-261/home/650377,MLSListings,ML81793075,N,Y,37.3768326,-122.0704482
172,PAST SALE,February-22-2018,Condo/Co-op,255 S Rengstorff Ave #134,MOUNTAIN VIEW,CA,94040.0,900000.0,2.0,1.0,MOUNTAIN VIEW,935.0,,1965.0,1178.0,963.0,495.0,Sold,,,http://www.redfin.com/CA/Mountain-View/255-S-Rengstorff-Ave-94040/unit-134/home/1591214,MLSListings,ML81689173,N,Y,37.4000438,-122.09900079999998
173,PAST SALE,September-20-2017,Single Family Residential,1555 Ernestine Ln,MOUNTAIN VIEW,CA,94040.0,2300000.0,3.0,2.0,MOUNTAIN VIEW,1232.0,4968.0,1954.0,1333.0,1867.0,,Sold,,,http://www.redfin.com/CA/Mountain-View/1555-Ernestine-Ln-94040/home/642908,MLSListings,ML81675262,N,Y,37.3860791,-122.09419650000001
174,PAST SALE,September-14-2018,Condo/Co-op,49 Showers Dr Unit A331,MOUNTAIN VIEW,CA,94040.0,1100000.0,2.0,2.0,MOUNTAIN VIEW,1206.0,21821.0,1977.0,974.0,912.0,435.0,Sold,,,http://www.redfin.com/CA/Mountain-View/49-Showers-Dr-94040/unit-A331/home/2121029,MLSListings,ML81719311,N,Y,37.4041939,-122.1027228
175,PAST SALE,September-12-2016,Single Family Residential,1717 Pilgrim Ave,MOUNTAIN VIEW,CA,94040.0,3008000.0,4.0,4.0,MOUNTAIN VIEW,3172.0,11377.0,2015.0,1706.0,948.0,,Sold,,,http://www.redfin.com/CA/Mountain-View/1717-Pilgrim-Ave-94040/home/1589624,MLSListings,ML81599492,N,Y,37.3891046,-122.0965929
176,PAST SALE,June-24-2019,Single Family Residential,2048 Marich Way,MOUNTAIN VIEW,CA,94040.0,2370000.0,3.0,2.0,MOUNTAIN VIEW,1766.0,7476.0,1954.0,691.0,1342.0,,Sold,,,http://www.redfin.com/CA/Mountain-View/2048-Marich-Way-94040/home/1667406,MLSListings,ML81750986,N,Y,37.3924713,-122.100587
177,PAST SALE,April-2-2018,Townhouse,2291 Oaktree Dr,MOUNTAIN VIEW,CA,94040.0,1925000.0,3.0,2.5,MOUNTAIN VIEW,1782.0,1141.0,1988.0,1139.0,1080.0,380.0,Sold,,,http://www.redfin.com/CA/Mountain-View/2291-Oaktree-Dr-94040/unit-201/home/12171667,MLSListings,ML81694103,N,Y,37.4001768,-122.10449209999999
178,PAST SALE,April-23-2021,Single Family Residential,2692 Yorkton Dr,MOUNTAIN VIEW,CA,94040.0,3150000.0,4.0,2.5,MOUNTAIN VIEW,2128.0,8008.0,1965.0,22.0,1480.0,,Sold,,,http://www.redfin.com/CA/Mountain-View/2692-Yorkton-Dr-94040/home/1398119,MLSListings,ML81834374,N,Y,37.3662641,-122.0721374
179,PAST SALE,April-19-2021,Condo/Co-op,2255 Showers Dr #242,MOUNTAIN VIEW,CA,94040.0,700000.0,1.0,1.0,MOUNTAIN VIEW,789.0,,1999.0,26.0,887.0,430.0,Sold,,,http://www.redfin.com/CA/Mountain-View/2255-Showers-Dr-94040/unit-242/home/12172195,MLSListings,ML81830461,N,Y,37.4071408,-122.1079311
180,PAST SALE,June-23-2016,Condo/Co-op,255 S Rengstorff Ave #59,MOUNTAIN VIEW,CA,94040.0,480000.0,1.0,1.0,MOUNTAIN VIEW,551.0,1395.0,1965.0,1787.0,871.0,389.0,Sold,,,http://www.redfin.com/CA/Mountain-View/255-S-Rengstorff-Ave-94040/unit-59/home/547394,MLSListings,ML81583129,N,Y,37.4000438,-122.09900079999998
181,PAST SALE,April-7-2021,Single Family Residential,1017 Tulane Dr,MOUNTAIN VIEW,CA,94040.0,3801000.0,5.0,3.0,MOUNTAIN VIEW,2850.0,8100.0,1958.0,38.0,1334.0,,Sold,,,http://www.redfin.com/CA/Mountain-View/1017-Tulane-Dr-94040/home/1427614,MLSListings,ML81831429,N,Y,37.3762073,-122.0917741
182,PAST SALE,August-2-2019,Single Family Residential,629 Cornelia Ct,MOUNTAIN VIEW,CA,94040.0,2100000.0,4.0,2.0,MOUNTAIN VIEW,1812.0,6300.0,1955.0,652.0,1159.0,,Sold,,,http://www.redfin.com/CA/Mountain-View/629-Cornelia-Ct-94040/home/1611954,MLSListings,ML81760909,N,Y,37.3763466,-122.0829678
183,PAST SALE,June-12-2020,Single Family Residential,817 Sladky Ave,MOUNTAIN VIEW,CA,94040.0,2285000.0,4.0,2.0,MOUNTAIN VIEW,1496.0,6090.0,1954.0,337.0,1527.0,,Sold,,,http://www.redfin.com/CA/Mountain-View/817-Sladky-Ave-94040/home/1246771,MLSListings,ML81792850,N,Y,37.37386779999999,-122.08793870000001
184,PAST SALE,November-18-2016,Townhouse,1122 Boranda Ave,MOUNTAIN VIEW,CA,94040.0,1480000.0,4.0,3.0,MOUNTAIN VIEW,2112.0,2635.0,2007.0,1639.0,701.0,476.0,Sold,,,http://www.redfin.com/CA/Mountain-View/1122-Boranda-Ave-94040/home/17291348,MLSListings,ML81584096,N,Y,37.38093,-122.08287800000001
185,PAST SALE,December-9-2020,Single Family Residential,1720 Peartree Ln,MOUNTAIN VIEW,CA,94040.0,2700000.0,3.0,2.0,MOUNTAIN VIEW,1550.0,6492.0,1954.0,157.0,1742.0,,Sold,,,http://www.redfin.com/CA/Mountain-View/1720-Peartree-Ln-94040/home/1187400,MLSListings,ML81820056,N,Y,37.3727117,-122.0900247
186,PAST SALE,July-13-2020,Single Family Residential,1824 Van Buren Cir,MOUNTAIN VIEW,CA,94040.0,3600000.0,4.0,2.5,MOUNTAIN VIEW,2858.0,13284.0,1965.0,306.0,1260.0,,Sold,,,http://www.redfin.com/CA/Mountain-View/1824-Van-Buren-Cir-94040/home/1187445,MLSListings,ML81796859,N,Y,37.369287,-122.08902690000001
187,PAST SALE,September-25-2020,Condo/Co-op,255 S Rengstorff Ave #136,MOUNTAIN VIEW,CA,94040.0,750000.0,2.0,1.0,MOUNTAIN VIEW,935.0,,1965.0,232.0,802.0,518.0,Sold,,,http://www.redfin.com/CA/Mountain-View/255-S-Rengstorff-Ave-94040/unit-136/home/1710237,MLSListings,ML81806023,N,Y,37.4000438,-122.09900079999998
188,PAST SALE,August-23-2019,Single Family Residential,1175 Solana Dr,MOUNTAIN VIEW,CA,94040.0,2100000.0,3.0,2.0,MOUNTAIN VIEW,1322.0,6599.0,1951.0,631.0,1589.0,,Sold,,,http://www.redfin.com/CA/Mountain-View/1175-Solana-Dr-94040/home/635694,MLSListings,ML81752109,N,Y,37.3894634,-122.10333829999999
189,PAST SALE,July-3-2019,Single Family Residential,1633 Miramonte Ave,MOUNTAIN VIEW,CA,94040.0,1830888.0,3.0,2.0,MOUNTAIN VIEW,1178.0,6236.0,1955.0,682.0,1554.0,,Sold,,,http://www.redfin.com/CA/Mountain-View/1633-Miramonte-Ave-94040/home/1562304,MLSListings,ML81753730,N,Y,37.3761704,-122.08665159999998
190,PAST SALE,August-8-2018,Single Family Residential,1168 Marilyn Dr,MOUNTAIN VIEW,CA,94040.0,3250000.0,4.0,3.5,MOUNTAIN VIEW,2238.0,6152.0,2010.0,1011.0,1452.0,,Sold,,,http://www.redfin.com/CA/Mountain-View/1168-Marilyn-Dr-94040/home/35626044,MLSListings,ML81707301,N,Y,37.3812311,-122.0922437
191,PAST SALE,April-20-2017,Townhouse,1927 Amalfi Way,MOUNTAIN VIEW,CA,94040.0,1520000.0,3.0,3.0,MOUNTAIN VIEW,1907.0,2760.0,1979.0,1486.0,797.0,495.0,Sold,,,http://www.redfin.com/CA/Mountain-View/1927-Amalfi-Way-94040/home/1246910,MLSListings,ML81640536,N,Y,37.3673299,-122.08660719999999
192,PAST SALE,February-6-2020,Single Family Residential,1445 Isabelle Ave,MOUNTAIN VIEW,CA,94040.0,2030000.0,2.0,1.0,MOUNTAIN VIEW,1084.0,10533.0,1953.0,464.0,1873.0,,Sold,,,http://www.redfin.com/CA/Mountain-View/1445-Isabelle-Ave-94040/home/1785726,MLSListings,ML81781612,N,Y,37.3779295,-122.08830290000002
193,PAST SALE,December-15-2016,Multi-Family (2-4 Unit),1430 Miramonte Ave,MOUNTAIN VIEW,CA,94040.0,1880000.0,5.0,,MOUNTAIN VIEW,2321.0,8845.0,1961.0,1612.0,810.0,,Sold,,,http://www.redfin.com/CA/Mountain-View/1430-Miramonte-Ave-94040/home/979920,MLSListings,ML81632838,N,Y,37.378972999999995,-122.087378
194,PAST SALE,December-3-2019,Single Family Residential,823 Sladky Ave,MOUNTAIN VIEW,CA,94040.0,2205000.0,3.0,2.0,MOUNTAIN VIEW,1280.0,6000.0,1954.0,529.0,1723.0,,Sold,,,http://www.redfin.com/CA/Mountain-View/823-Sladky-Ave-94040/home/1210117,MLSListings,ML81774073,N,Y,37.3738758,-122.0881606
195,PAST SALE,June-28-2016,Single Family Residential,1654 Lee Dr,MOUNTAIN VIEW,CA,94040.0,1701000.0,3.0,2.0,MOUNTAIN VIEW,1458.0,5357.0,1952.0,1782.0,1167.0,,Sold,,,http://www.redfin.com/CA/Mountain-View/1654-Lee-Dr-94040/home/1397982,MLSListings,ML81586501,N,Y,37.375783399999996,-122.0907098
196,PAST SALE,May-2-2019,Single Family Residential,1642 Tulane Dr,MOUNTAIN VIEW,CA,94040.0,2400000.0,4.0,2.0,MOUNTAIN VIEW,1552.0,5623.0,1952.0,744.0,1546.0,,Sold,,,http://www.redfin.com/CA/Mountain-View/1642-Tulane-Dr-94040/home/869232,MLSListings,ML81740695,N,Y,37.3760502,-122.0882272
197,PAST SALE,November-8-2019,Single Family Residential,1134 Cuesta Dr,MOUNTAIN VIEW,CA,94040.0,2260000.0,4.0,3.5,MOUNTAIN VIEW,2288.0,7644.0,1955.0,554.0,988.0,,Sold,,,http://www.redfin.com/CA/Mountain-View/1134-Cuesta-Dr-94040/home/644608,MLSListings,ML81771085,N,Y,37.373633399999996,-122.09441840000001
198,PAST SALE,October-19-2020,Single Family Residential,1875 Golden Way,MOUNTAIN VIEW,CA,94040.0,3030000.0,4.0,2.5,MOUNTAIN VIEW,2200.0,9043.0,1965.0,208.0,1377.0,,Sold,,,http://www.redfin.com/CA/Mountain-View/1875-Golden-Way-94040/home/1228474,MLSListings,ML81810040,N,Y,37.3688031,-122.0903575
199,PAST SALE,April-20-2018,Condo/Co-op,1910 Mount Vernon Ct #12,MOUNTAIN VIEW,CA,94040.0,1000000.0,2.0,1.0,MOUNTAIN VIEW,960.0,871.0,1963.0,1121.0,1042.0,518.0,Sold,,,http://www.redfin.com/CA/Mountain-View/1910-Mt-Vernon-Ct-94040/unit-12/home/1462846,MLSListings,ML81697517,N,Y,37.396112,-122.09494699999999
200,PAST SALE,November-3-2017,Single Family Residential,1770 Cherrytree Ln,MOUNTAIN VIEW,CA,94040.0,2670000.0,4.0,2.5,MOUNTAIN VIEW,1711.0,7954.0,1954.0,1289.0,1560.0,,Sold,,,http://www.redfin.com/CA/Mountain-View/1770-Cherrytree-Ln-94040/home/641367,MLSListings,ML81679632,N,Y,37.3715697,-122.09082350000001
201,PAST SALE,February-26-2020,Single Family Residential,1846 Limetree Ln,MOUNTAIN VIEW,CA,94040.0,2680000.0,3.0,2.0,MOUNTAIN VIEW,1537.0,8140.0,1957.0,444.0,1744.0,,Sold,,,http://www.redfin.com/CA/Mountain-View/1846-Limetree-Ln-94040/home/1500267,MLSListings,ML81779920,N,Y,37.3697005,-122.09532809999999
202,PAST SALE,July-1-2020,Single Family Residential,360 Carmelita Dr,MOUNTAIN VIEW,CA,94040.0,3300000.0,4.0,2.0,MOUNTAIN VIEW,2066.0,21720.0,1918.0,318.0,1597.0,,Sold,,,http://www.redfin.com/CA/Mountain-View/360-Carmelita-Dr-94040/home/660020,MLSListings,ML81796965,N,Y,37.3755924,-122.0716265
203,PAST SALE,March-19-2021,Condo/Co-op,49 Showers Dr Unit W101,MOUNTAIN VIEW,CA,94040.0,930000.0,2.0,2.0,MOUNTAIN VIEW,1266.0,,1974.0,57.0,735.0,534.0,Sold,,,http://www.redfin.com/CA/Mountain-View/49-Showers-Dr-94040/unit-W101/home/17294277,MLSListings,ML81829272,N,Y,37.4050369,-122.103554
204,PAST SALE,March-19-2021,Townhouse,49 Showers Dr Unit L473,MOUNTAIN VIEW,CA,94040.0,1560000.0,3.0,2.5,MOUNTAIN VIEW,1487.0,1880.0,1976.0,57.0,1049.0,534.0,Sold,,,http://www.redfin.com/CA/Mountain-View/49-Showers-Dr-94040/unit-L473/home/2120957,MLSListings,ML81828576,N,Y,37.4050369,-122.103554
205,PAST SALE,March-14-2017,Single Family Residential,1098 Solana Dr,MOUNTAIN VIEW,CA,94040.0,1625000.0,3.0,1.0,MOUNTAIN VIEW,974.0,5400.0,1951.0,1523.0,1668.0,,Sold,,,http://www.redfin.com/CA/Mountain-View/1098-Solana-Dr-94040/home/1292558,MLSListings,ML81642505,N,Y,37.3913391,-122.102717
206,PAST SALE,October-5-2018,Single Family Residential,1854 Appletree Ln,MOUNTAIN VIEW,CA,94040.0,2800000.0,4.0,2.0,MOUNTAIN VIEW,1593.0,8645.0,1958.0,953.0,1758.0,,Sold,,,http://www.redfin.com/CA/Mountain-View/1854-Appletree-Ln-94040/home/1354972,MLSListings,ML81722812,N,Y,37.369487299999996,-122.0935529
207,PAST SALE,July-18-2016,Single Family Residential,1852 Limetree Ln,MOUNTAIN VIEW,CA,94040.0,2200000.0,3.0,2.0,MOUNTAIN VIEW,1620.0,8502.0,1961.0,1762.0,1358.0,,Sold,,,http://www.redfin.com/CA/Mountain-View/1852-Limetree-Ln-94040/home/1696878,MLSListings,ML81590679,N,Y,37.369525,-122.0953503
208,PAST SALE,July-24-2020,Single Family Residential,1875 Appletree Ln,MOUNTAIN VIEW,CA,94040.0,2905000.0,4.0,2.5,MOUNTAIN VIEW,2163.0,8610.0,1958.0,295.0,1343.0,,Sold,,,http://www.redfin.com/CA/Mountain-View/1875-Appletree-Ln-94040/home/1684354,MLSListings,ML81797741,N,Y,37.368823,-122.09302040000001
209,PAST SALE,February-15-2019,Single Family Residential,1044 Sladky Ave,MOUNTAIN VIEW,CA,94040.0,2900000.0,4.0,2.0,MOUNTAIN VIEW,1654.0,7910.0,1957.0,820.0,1753.0,,Sold,,,http://www.redfin.com/CA/Mountain-View/1044-Sladky-Ave-94040/home/1705588,MLSListings,ML81736191,N,Y,37.374334999999995,-122.092235
210,PAST SALE,October-29-2020,Single Family Residential,1645 Yale Dr,MOUNTAIN VIEW,CA,94040.0,2900000.0,4.0,2.0,MOUNTAIN VIEW,1922.0,7606.0,1958.0,198.0,1509.0,,Sold,,,http://www.redfin.com/CA/Mountain-View/1645-Yale-Dr-94040/home/723216,MLSListings,ML81814628,N,Y,37.3753974,-122.0931757
211,PAST SALE,May-24-2017,Single Family Residential,1102 Cuesta,MOUNTAIN VIEW,CA,94040.0,2050000.0,3.0,2.0,MOUNTAIN VIEW,1543.0,,1955.0,1452.0,1329.0,,Sold,,,http://www.redfin.com/CA/Mountain-View/1102-Cuesta-Dr-94040/home/1705644,MLSListings,ML81647686,N,Y,37.3736407,-122.0934642
212,PAST SALE,April-18-2018,Single Family Residential,1541 Fordham Way,MOUNTAIN VIEW,CA,94040.0,2740000.0,4.0,3.0,MOUNTAIN VIEW,2055.0,8419.0,1954.0,1123.0,1333.0,,Sold,,,http://www.redfin.com/CA/Mountain-View/1541-Fordham-Way-94040/home/1751368,MLSListings,ML81697288,N,Y,37.3781615,-122.09073479999999
213,PAST SALE,July-11-2019,Single Family Residential,1561 Meadow Ln,MOUNTAIN VIEW,CA,94040.0,2720000.0,3.0,2.0,MOUNTAIN VIEW,1671.0,9483.0,1954.0,674.0,1628.0,,Sold,,,http://www.redfin.com/CA/Mountain-View/1561-Meadow-Ln-94040/home/1798857,MLSListings,ML81748698,N,Y,37.3777236,-122.0925544
214,PAST SALE,November-23-2020,Single Family Residential,1423 S Springer Rd,MOUNTAIN VIEW,CA,94040.0,2150000.0,3.0,2.0,MOUNTAIN VIEW,1335.0,8516.0,1954.0,173.0,1610.0,,Sold,,,http://www.redfin.com/CA/Mountain-View/1423-Springer-Rd-94040/home/641029,MLSListings,ML81816894,N,Y,37.380708899999995,-122.0957054
215,PAST SALE,December-7-2018,Townhouse,126 Pacchetti Way,MOUNTAIN VIEW,CA,94040.0,1690000.0,3.0,3.0,MOUNTAIN VIEW,1421.0,1020.0,1998.0,890.0,1189.0,223.0,Sold,,,http://www.redfin.com/CA/Mountain-View/126-Pacchetti-Way-94040/home/12172144,MLSListings,ML81727697,N,Y,37.406462,-122.107629
216,PAST SALE,October-16-2019,Townhouse,902 Camille Ln,MOUNTAIN VIEW,CA,94040.0,1800000.0,3.0,3.5,MOUNTAIN VIEW,2022.0,2302.0,2003.0,577.0,890.0,326.0,Sold,,,http://www.redfin.com/CA/Mountain-View/902-Camille-Ln-94040/home/1045293,MLSListings,ML81767224,N,Y,37.3830798,-122.08003629999999
217,PAST SALE,July-7-2017,Single Family Residential,1555 Todd St,MOUNTAIN VIEW,CA,94040.0,2050000.0,3.0,1.0,MOUNTAIN VIEW,1273.0,5022.0,1953.0,1408.0,1610.0,,Sold,,,http://www.redfin.com/CA/Mountain-View/1555-Todd-St-94040/home/1309886,MLSListings,ML81653889,N,Y,37.3854336,-122.09397460000001
218,PAST SALE,December-22-2020,Single Family Residential,1520 Todd St,MOUNTAIN VIEW,CA,94040.0,2475000.0,3.0,2.0,MOUNTAIN VIEW,1353.0,5121.0,1954.0,144.0,1829.0,,Sold,,,http://www.redfin.com/CA/Mountain-View/1520-Todd-St-94040/home/1562247,MLSListings,ML81812623,N,Y,37.385843799999996,-122.0934864
219,PAST SALE,June-26-2018,Single Family Residential,1618 Hollingsworth Dr,MOUNTAIN VIEW,CA,94040.0,3042500.0,4.0,2.0,MOUNTAIN VIEW,2350.0,10869.0,1947.0,1054.0,1295.0,,Sold,,,http://www.redfin.com/CA/Mountain-View/1618-Hollingsworth-Dr-94040/home/1309888,MLSListings,ML81707433,N,Y,37.388388299999995,-122.094374
220,PAST SALE,August-14-2017,Multi-Family (5+ Unit),864 Park Dr,MOUNTAIN VIEW,CA,94040.0,1825000.0,3.0,,MOUNTAIN VIEW,2386.0,7770.0,1954.0,1370.0,765.0,,Sold,,,http://www.redfin.com/CA/Mountain-View/864-Park-Dr-94040/home/1198269,MLSListings,ML81653853,N,Y,37.385809,-122.08554199999999
221,PAST SALE,August-22-2017,Single Family Residential,1204 Awalt Dr,MOUNTAIN VIEW,CA,94040.0,2233000.0,4.0,2.0,MOUNTAIN VIEW,1861.0,7950.0,1965.0,1362.0,1200.0,,Sold,,,http://www.redfin.com/CA/Mountain-View/1204-Awalt-Dr-94040/home/1303662,MLSListings,ML81670231,N,Y,37.3634321,-122.06871940000002
222,PAST SALE,November-27-2018,Single Family Residential,1863 Appletree Ln,MOUNTAIN VIEW,CA,94040.0,3250000.0,4.0,2.0,MOUNTAIN VIEW,1875.0,8610.0,1959.0,900.0,1733.0,,Sold,,,http://www.redfin.com/CA/Mountain-View/1863-Appletree-Ln-94040/home/742982,MLSListings,ML81730219,N,Y,37.3692732,-122.09302040000001
223,PAST SALE,June-12-2017,Single Family Residential,1445 Meadow Ln,MOUNTAIN VIEW,CA,94040.0,2860000.0,4.0,3.0,MOUNTAIN VIEW,2134.0,8000.0,1954.0,1433.0,1340.0,,Sold,,,http://www.redfin.com/CA/Mountain-View/1445-Meadow-Ln-94040/home/1462420,MLSListings,ML81651902,N,Y,37.3798631,-122.0924878
224,PAST SALE,April-20-2021,Condo/Co-op,49 Showers Dr Unit A130,MOUNTAIN VIEW,CA,94040.0,916600.0,2.0,2.0,MOUNTAIN VIEW,1206.0,,1977.0,25.0,760.0,534.0,Sold,,,http://www.redfin.com/CA/Mountain-View/49-Showers-Dr-94040/unit-A130/home/2121015,MLSListings,ML81827504,N,Y,37.4050369,-122.103554
225,PAST SALE,November-25-2020,Single Family Residential,246 College Ave,MOUNTAIN VIEW,CA,94040.0,1600000.0,3.0,2.5,MOUNTAIN VIEW,1150.0,3000.0,2020.0,171.0,1391.0,,Sold,,,http://www.redfin.com/CA/Mountain-View/246-College-Ave-94040/home/168869267,MLSListings,ML81802450,N,Y,37.4014121,-122.10103070000001
226,PAST SALE,September-25-2019,Single Family Residential,1304 Cuernavaca Circulo,MOUNTAIN VIEW,CA,94040.0,1675000.0,3.0,2.0,MOUNTAIN VIEW,1535.0,5015.0,1986.0,598.0,1091.0,279.0,Sold,,,http://www.redfin.com/CA/Mountain-View/1304-Cuernavaca-Circulo-94040/home/1772761,MLSListings,ML81765072,N,Y,37.3718239,-122.060824
227,PAST SALE,July-8-2016,Single Family Residential,1922 Adams Ct,MOUNTAIN VIEW,CA,94040.0,2593155.0,5.0,3.0,MOUNTAIN VIEW,2484.0,8001.0,1963.0,1772.0,1044.0,,Sold,,,http://www.redfin.com/CA/Mountain-View/1922-Adams-Ct-94040/home/1094248,MLSListings,ML81586839,N,Y,37.3676772,-122.08820300000001
228,PAST SALE,September-6-2019,Single Family Residential,1501 LLOYD Way,MOUNTAIN VIEW,CA,94040.0,2010000.0,3.0,1.5,MOUNTAIN VIEW,1364.0,5160.0,1953.0,617.0,1474.0,,Sold,,,http://www.redfin.com/CA/Mountain-View/1501-Lloyd-Way-94040/home/1603045,MLSListings,ML81752910,N,Y,37.38673060000001,-122.0935308
229,PAST SALE,July-28-2017,Single Family Residential,1922 Miramonte Ave,MOUNTAIN VIEW,CA,94040.0,2400000.0,4.0,3.0,MOUNTAIN VIEW,2245.0,8000.0,1963.0,1387.0,1069.0,,Sold,,,http://www.redfin.com/CA/Mountain-View/1922-Miramonte-Ave-94040/home/1223435,MLSListings,ML81652560,N,Y,37.3676799,-122.08731709999998
230,PAST SALE,August-4-2017,Single Family Residential,1119 Miramonte Ave,MOUNTAIN VIEW,CA,94040.0,1700000.0,3.0,1.5,MOUNTAIN VIEW,1049.0,4048.0,1950.0,1380.0,1621.0,,Sold,,,http://www.redfin.com/CA/Mountain-View/1119-Miramonte-Ave-94040/home/729668,MLSListings,ML81657079,N,Y,37.3844083,-122.08683149999999
231,PAST SALE,February-17-2017,Single Family Residential,849 Sonia Way,MOUNTAIN VIEW,CA,94040.0,1900000.0,3.0,2.0,MOUNTAIN VIEW,1165.0,5880.0,1952.0,1548.0,1631.0,,Sold,,,http://www.redfin.com/CA/Mountain-View/849-Sonia-Way-94040/home/644179,MLSListings,ML81636598,N,Y,37.384568,-122.0862966
232,PAST SALE,October-30-2018,Single Family Residential,290 Monroe Dr,MOUNTAIN VIEW,CA,94040.0,2570000.0,3.0,2.5,MOUNTAIN VIEW,1766.0,4988.0,2007.0,928.0,1455.0,,Sold,,,http://www.redfin.com/CA/Mountain-View/290-Monroe-Dr-94040/home/12181266,MLSListings,ML81726266,N,Y,37.4109222,-122.1164285
233,PAST SALE,November-15-2019,Single Family Residential,212 S Rengstorff Ave,MOUNTAIN VIEW,CA,94040.0,952000.0,4.0,1.0,MOUNTAIN VIEW,1017.0,3347.0,1928.0,547.0,936.0,,Sold,,,http://www.redfin.com/CA/Mountain-View/212-S-Rengstorff-Ave-94040/home/2120611,MLSListings,ML81773081,N,Y,37.401098499999996,-122.09900049999999
234,PAST SALE,October-21-2019,Single Family Residential,1274 Lane Ave,MOUNTAIN VIEW,CA,94040.0,3549000.0,5.0,5.0,MOUNTAIN VIEW,3243.0,9362.0,2018.0,572.0,1094.0,,Sold,,,http://www.redfin.com/CA/Mountain-View/1274-Lane-Ave-94040/home/1772733,MLSListings,ML81771049,N,Y,37.382619,-122.0838111
235,PAST SALE,June-16-2017,Townhouse,1067 Bonita Ave,MOUNTAIN VIEW,CA,94040.0,1875000.0,4.0,2.5,MOUNTAIN VIEW,2084.0,2089.0,2002.0,1429.0,900.0,375.0,Sold,,,http://www.redfin.com/CA/Mountain-View/1067-Bonita-Ave-94040/home/1039420,MLSListings,ML81652156,N,Y,37.381020899999996,-122.080476
236,PAST SALE,November-29-2018,Single Family Residential,768 Hans Ave,MOUNTAIN VIEW,CA,94040.0,2100000.0,4.0,3.0,MOUNTAIN VIEW,1759.0,6000.0,1955.0,898.0,1194.0,,Sold,,,http://www.redfin.com/CA/Mountain-View/768-Hans-Ave-94040/home/646513,MLSListings,ML81727668,N,Y,37.3793737,-122.086124
237,PAST SALE,February-18-2020,Single Family Residential,1514 Montalto Dr,MOUNTAIN VIEW,CA,94040.0,2233000.0,3.0,2.0,MOUNTAIN VIEW,1178.0,6322.0,1955.0,452.0,1896.0,,Sold,,,http://www.redfin.com/CA/Mountain-View/1514-Montalto-Dr-94040/home/1592154,MLSListings,ML81779695,N,Y,37.3788055,-122.08451969999999
238,PAST SALE,March-16-2018,Multi-Family (2-4 Unit),1451 Tyler Park Way,MOUNTAIN VIEW,CA,94040.0,2700000.0,4.0,,MOUNTAIN VIEW,2763.0,10211.0,1967.0,1156.0,977.0,,Sold,,,http://www.redfin.com/CA/Mountain-View/1451-Tyler-Park-Way-94040/home/1137605,MLSListings,ML81692544,N,Y,37.3762734,-122.0775134
239,PAST SALE,February-23-2017,Single Family Residential,1328 Phyllis Ave,MOUNTAIN VIEW,CA,94040.0,1800000.0,4.0,3.0,MOUNTAIN VIEW,2040.0,5980.0,1955.0,1542.0,882.0,,Sold,,,http://www.redfin.com/CA/Mountain-View/1328-Phyllis-Ave-94040/home/814162,MLSListings,ML81636636,N,Y,37.3779221,-122.0781298
240,PAST SALE,December-2-2019,Single Family Residential,1598 Bonita Ave,MOUNTAIN VIEW,CA,94040.0,1930000.0,3.0,2.0,MOUNTAIN VIEW,1409.0,6323.0,1953.0,530.0,1370.0,,Sold,,,http://www.redfin.com/CA/Mountain-View/1598-Bonita-Ave-94040/home/1414137,MLSListings,ML81773479,N,Y,37.3748594,-122.0805723
241,PAST SALE,June-21-2019,Single Family Residential,1465 Bonita Ave,MOUNTAIN VIEW,CA,94040.0,2300000.0,4.0,2.0,MOUNTAIN VIEW,2128.0,6300.0,1953.0,694.0,1081.0,,Sold,,,http://www.redfin.com/CA/Mountain-View/1465-Bonita-Ave-94040/home/1447529,MLSListings,ML81746572,N,Y,37.376490600000004,-122.0800777
242,PAST SALE,June-21-2017,Single Family Residential,1420 Nilda Ave,MOUNTAIN VIEW,CA,94040.0,2295000.0,3.0,2.0,MOUNTAIN VIEW,1893.0,5980.0,1955.0,1424.0,1212.0,,Sold,,,http://www.redfin.com/CA/Mountain-View/1420-Nilda-Ave-94040/home/646639,MLSListings,ML81647400,N,Y,37.3768253,-122.07977199999999
243,PAST SALE,May-20-2019,Single Family Residential,528 Leona Ln,MOUNTAIN VIEW,CA,94040.0,2033000.0,3.0,2.0,MOUNTAIN VIEW,1178.0,7260.0,1956.0,726.0,1726.0,,Sold,,,http://www.redfin.com/CA/Mountain-View/528-Leona-Ln-94040/home/648296,MLSListings,ML81748184,N,Y,37.377028100000004,-122.0814587
244,PAST SALE,July-16-2018,Single Family Residential,1613 Montalto Dr,Mountain View,CA,94040.0,2420000.0,4.0,3.0,Santa Clara,2019.0,4830.0,1955.0,1034.0,1199.0,,Sold,,,http://www.redfin.com/CA/Mountain-View/1613-Montalto-Dr-94040/home/1432665,"bridgeMLS, Bay East AOR, or Contra Costa AOR",40825931,N,Y,37.3768905,-122.0839755
245,PAST SALE,November-30-2020,Single Family Residential,1666 Alison Ave,MOUNTAIN VIEW,CA,94040.0,2600000.0,4.0,2.5,MOUNTAIN VIEW,2155.0,6198.0,1955.0,166.0,1206.0,,Sold,,,http://www.redfin.com/CA/Mountain-View/1666-Alison-Ave-94040/home/1827729,MLSListings,ML81811836,N,Y,37.3752567,-122.08565990000001
246,PAST SALE,October-15-2018,Single Family Residential,1647 Alison Ave,MOUNTAIN VIEW,CA,94040.0,2162625.0,3.0,2.0,MOUNTAIN VIEW,1178.0,6000.0,1955.0,943.0,1836.0,,Sold,,,http://www.redfin.com/CA/Mountain-View/1647-Alison-Ave-94040/home/935404,MLSListings,ML81718294,N,Y,37.375817100000006,-122.0857298
247,PAST SALE,April-12-2021,Single Family Residential,685 Barbara Ave,MOUNTAIN VIEW,CA,94040.0,3750000.0,4.0,3.0,MOUNTAIN VIEW,2212.0,6401.0,1955.0,33.0,1695.0,,Sold,,,http://www.redfin.com/CA/Mountain-View/685-Barbara-Ave-94040/home/1736299,MLSListings,ML81833328,N,Y,37.3770656,-122.08387759999998
248,PAST SALE,November-13-2020,Townhouse,150 Pacchetti Way,MOUNTAIN VIEW,CA,94040.0,1470035.0,3.0,3.0,MOUNTAIN VIEW,1421.0,1421.0,1997.0,183.0,1035.0,161.0,Sold,,,http://www.redfin.com/CA/Mountain-View/150-Pacchetti-Way-94040/home/12172235,MLSListings,ML81812622,N,Y,37.4058929,-122.10784240000001
249,PAST SALE,June-14-2017,Single Family Residential,730 Leona Ln,MOUNTAIN VIEW,CA,94040.0,2125000.0,3.0,2.0,MOUNTAIN VIEW,1586.0,6098.0,1955.0,1431.0,1340.0,,Sold,,,http://www.redfin.com/CA/Mountain-View/730-Leona-Ln-94040/home/1654193,MLSListings,ML81649675,N,Y,37.374745399999995,-122.083674
250,PAST SALE,July-7-2020,Single Family Residential,1104 Boranda Ave,MOUNTAIN VIEW,CA,94040.0,2180000.0,4.0,2.5,MOUNTAIN VIEW,1880.0,3472.0,1997.0,312.0,1160.0,125.0,Sold,,,http://www.redfin.com/CA/Mountain-View/1104-Boranda-Ave-94040/home/1275462,MLSListings,ML81795287,N,Y,37.381176200000006,-122.0823905
251,PAST SALE,October-17-2019,Condo/Co-op,1910 Mount Vernon Ct #15,MOUNTAIN VIEW,CA,94040.0,620000.0,1.0,1.0,MOUNTAIN VIEW,818.0,899.0,1963.0,576.0,758.0,550.0,Sold,,,http://www.redfin.com/CA/Mountain-View/1910-Mt-Vernon-Ct-94040/unit-15/home/1722047,MLSListings,ML81767574,N,Y,37.396112,-122.09494699999999
252,PAST SALE,September-13-2019,Single Family Residential,1374 Lloyd Way,MOUNTAIN VIEW,CA,94040.0,2120000.0,3.0,2.0,MOUNTAIN VIEW,1351.0,6073.0,1953.0,610.0,1569.0,,Sold,,,http://www.redfin.com/CA/Mountain-View/1374-Lloyd-Way-94040/home/642926,MLSListings,ML81764667,N,Y,37.387113899999996,-122.09133390000001
253,PAST SALE,December-9-2019,Condo/Co-op,2111 Latham St #311,MOUNTAIN VIEW,CA,94040.0,1000000.0,2.0,2.0,MOUNTAIN VIEW,1206.0,1140.0,1978.0,523.0,829.0,499.0,Sold,,,http://www.redfin.com/CA/Mountain-View/2111-Latham-St-94040/unit-311/home/2121168,MLSListings,ML81773552,N,Y,37.3968671,-122.1019848
254,PAST SALE,October-10-2018,Single Family Residential,425 Chesley Ave,MOUNTAIN VIEW,CA,94040.0,2725000.0,4.0,2.5,MOUNTAIN VIEW,2239.0,7950.0,1966.0,948.0,1217.0,,Sold,,,http://www.redfin.com/CA/Mountain-View/425-Chesley-Ave-94040/home/1561710,MLSListings,ML81723023,N,Y,37.3663651,-122.0745344
255,PAST SALE,May-19-2016,Single Family Residential,1570 Nilda Ave,MOUNTAIN VIEW,CA,94040.0,1875000.0,3.0,2.0,MOUNTAIN VIEW,1472.0,5980.0,1955.0,1822.0,1274.0,,Sold,,,http://www.redfin.com/CA/Mountain-View/1570-Nilda-Ave-94040/home/880103,MLSListings,ML81581349,N,Y,37.3752141,-122.07977720000001
256,PAST SALE,April-3-2018,Townhouse,278 Monroe Dr #9,MOUNTAIN VIEW,CA,94040.0,1100000.0,2.0,1.0,MOUNTAIN VIEW,939.0,448.0,1962.0,1138.0,1171.0,420.0,Sold,,,http://www.redfin.com/CA/Mountain-View/278-Monroe-Dr-94040/unit-9/home/12171704,MLSListings,ML81695462,N,Y,37.4113318,-122.1153858
257,PAST SALE,March-5-2018,Condo/Co-op,181 Del Medio Ave #110,MOUNTAIN VIEW,CA,94040.0,930000.0,2.0,1.0,MOUNTAIN VIEW,936.0,900.0,1962.0,1167.0,994.0,460.0,Sold,,,http://www.redfin.com/CA/Mountain-View/181-Del-Medio-Ave-94040/unit-110/home/12171960,MLSListings,ML81688381,N,Y,37.4081669,-122.1114145
258,PAST SALE,July-26-2016,Condo/Co-op,181 Del Medio Ave #111,MOUNTAIN VIEW,CA,94040.0,475000.0,0.0,1.0,MOUNTAIN VIEW,576.0,574.0,1962.0,1754.0,825.0,265.0,Sold,,,http://www.redfin.com/CA/Mountain-View/181-Del-Medio-Ave-94040/unit-111/home/2121230,MLSListings,ML81583868,N,Y,37.4081669,-122.1114145
259,PAST SALE,May-5-2017,Condo/Co-op,181 Del Medio Ave #211,MOUNTAIN VIEW,CA,94040.0,510000.0,0.0,1.0,MOUNTAIN VIEW,576.0,576.0,1962.0,1471.0,885.0,268.0,Sold,,,http://www.redfin.com/CA/Mountain-View/181-Del-Medio-Ave-94040/unit-211/home/2121234,MLSListings,ML81645642,N,Y,37.4081669,-122.1114145
260,PAST SALE,May-15-2019,Single Family Residential,729 Leona Ln,MOUNTAIN VIEW,CA,94040.0,2300000.0,3.0,2.0,MOUNTAIN VIEW,1178.0,8256.0,1955.0,731.0,1952.0,,Sold,,,http://www.redfin.com/CA/Mountain-View/729-Leona-Ln-94040/home/1459871,MLSListings,ML81747502,N,Y,37.3743232,-122.08345600000001
261,PAST SALE,May-26-2016,Condo/Co-op,183 Del Medio Ave #211,MOUNTAIN VIEW,CA,94040.0,497000.0,0.0,1.0,MOUNTAIN VIEW,576.0,576.0,1962.0,1815.0,863.0,265.0,Sold,,,http://www.redfin.com/CA/Mountain-View/183-Del-Medio-Ave-94040/unit-211/home/12171993,MLSListings,ML81585186,N,Y,37.407743200000006,-122.1119469
262,PAST SALE,September-22-2017,Condo/Co-op,2255 Showers Dr #141,MOUNTAIN VIEW,CA,94040.0,1085000.0,2.0,2.0,MOUNTAIN VIEW,1051.0,980.0,1999.0,1331.0,1032.0,347.0,Sold,,,http://www.redfin.com/CA/Mountain-View/2255-Showers-Dr-94040/unit-141/home/2121469,MLSListings,ML81675031,N,Y,37.4071408,-122.1079311
263,PAST SALE,October-30-2020,Single Family Residential,137 Laurel Way,MOUNTAIN VIEW,CA,94040.0,1830000.0,3.0,2.5,MOUNTAIN VIEW,1339.0,2030.0,1996.0,197.0,1367.0,77.0,Sold,,,http://www.redfin.com/CA/Mountain-View/137-Laurel-Way-94040/home/12172104,MLSListings,ML81812453,N,Y,37.40499129999999,-122.10763159999999
264,PAST SALE,August-25-2020,Condo/Co-op,2255 Showers Dr #313,MOUNTAIN VIEW,CA,94040.0,790000.0,1.0,1.0,MOUNTAIN VIEW,769.0,,1999.0,263.0,1027.0,375.0,Sold,,,http://www.redfin.com/CA/Mountain-View/2255-Showers-Dr-94040/unit-313/home/12172207,MLSListings,ML81797217,N,Y,37.4071408,-122.1079311
265,PAST SALE,October-12-2016,Single Family Residential,110 Beacon St,MOUNTAIN VIEW,CA,94040.0,1528000.0,3.0,2.5,MOUNTAIN VIEW,1339.0,1502.0,1995.0,1676.0,1141.0,72.0,Sold,,,http://www.redfin.com/CA/Mountain-View/110-Beacon-St-94040/home/2121382,MLSListings,ML81613307,N,Y,37.4053711,-122.10681070000001
266,PAST SALE,June-13-2016,Condo/Co-op,2255 Showers Dr #421,MOUNTAIN VIEW,CA,94040.0,752500.0,1.0,1.0,MOUNTAIN VIEW,769.0,771.0,1999.0,1797.0,979.0,311.0,Sold,,,http://www.redfin.com/CA/Mountain-View/2255-Showers-Dr-94040/unit-421/home/2121516,MLSListings,ML81584312,N,Y,37.4071408,-122.1079311
267,PAST SALE,October-31-2016,Single Family Residential,131 Concord Cir,MOUNTAIN VIEW,CA,94040.0,1500000.0,3.0,2.5,MOUNTAIN VIEW,1339.0,1836.0,1994.0,1657.0,1120.0,126.0,Sold,,,http://www.redfin.com/CA/Mountain-View/131-Concord-Cir-94040/home/2121354,MLSListings,ML81615426,N,Y,37.4043854,-122.10554599999999
268,PAST SALE,August-22-2019,Condo/Co-op,400 Ortega Ave #103,MOUNTAIN VIEW,CA,94040.0,830000.0,2.0,1.0,MOUNTAIN VIEW,1016.0,1133.0,1975.0,632.0,817.0,512.0,Sold,,,http://www.redfin.com/CA/Mountain-View/400-Ortega-Ave-94040/unit-103/home/12171835,MLSListings,ML81761038,N,Y,37.399715,-122.10534799999999
269,PAST SALE,February-10-2021,Condo/Co-op,400 Ortega Ave #323,MOUNTAIN VIEW,CA,94040.0,875000.0,2.0,2.0,MOUNTAIN VIEW,1113.0,,1975.0,94.0,786.0,512.0,Sold,,,http://www.redfin.com/CA/Mountain-View/400-Ortega-Ave-94040/unit-323/home/12171864,MLSListings,ML81819503,N,Y,37.399469,-122.105492
270,PAST SALE,September-21-2020,Condo/Co-op,49 Showers Dr Unit J221,MOUNTAIN VIEW,CA,94040.0,1075000.0,2.0,2.0,MOUNTAIN VIEW,1206.0,,1977.0,236.0,891.0,485.0,Sold,,,http://www.redfin.com/CA/Mountain-View/49-Showers-Dr-94040/unit-J221/home/12171775,MLSListings,ML81804203,N,Y,37.4050369,-122.103554
271,PAST SALE,May-9-2019,Condo/Co-op,49 Showers Dr Unit W111,MOUNTAIN VIEW,CA,94040.0,1100000.0,2.0,2.0,MOUNTAIN VIEW,1206.0,20844.0,1974.0,737.0,912.0,435.0,Sold,,,http://www.redfin.com/CA/Mountain-View/49-Showers-Dr-94040/unit-W111/home/2120881,MLSListings,ML81748677,N,Y,37.4050369,-122.103554
272,PAST SALE,July-2-2019,Condo/Co-op,49 Showers Dr Unit W114,MOUNTAIN VIEW,CA,94040.0,1248450.0,3.0,2.0,MOUNTAIN VIEW,1392.0,20844.0,1974.0,683.0,897.0,435.0,Sold,,,http://www.redfin.com/CA/Mountain-View/49-Showers-Dr-94040/unit-W114/home/2120883,MLSListings,ML81754180,N,Y,37.4050369,-122.103554
273,PAST SALE,April-25-2019,Condo/Co-op,49 Showers Dr Unit J225,MOUNTAIN VIEW,CA,94040.0,1168000.0,2.0,2.0,MOUNTAIN VIEW,1206.0,21822.0,1977.0,751.0,968.0,435.0,Sold,,,http://www.redfin.com/CA/Mountain-View/49-Showers-Dr-94040/unit-J225/home/2120978,MLSListings,ML81741555,N,Y,37.4050369,-122.103554
274,PAST SALE,October-10-2018,Condo/Co-op,49 Showers Dr Unit E147,MOUNTAIN VIEW,CA,94040.0,850000.0,1.0,1.0,MOUNTAIN VIEW,959.0,17125.0,1976.0,948.0,886.0,435.0,Sold,,,http://www.redfin.com/CA/Mountain-View/49-Showers-Dr-94040/unit-E147/home/2120998,MLSListings,ML81720860,N,Y,37.4050369,-122.103554
275,PAST SALE,June-4-2018,Condo/Co-op,400 Ortega Ave #106,MOUNTAIN VIEW,CA,94040.0,880000.0,2.0,1.0,MOUNTAIN VIEW,995.0,1007.0,1975.0,1076.0,884.0,505.0,Sold,,,http://www.redfin.com/CA/Mountain-View/400-Ortega-Ave-94040/unit-106/home/2121040,MLSListings,ML81703734,N,Y,37.400135999999996,-122.10510900000001
276,PAST SALE,May-10-2019,Condo/Co-op,400 Ortega Ave #109,MOUNTAIN VIEW,CA,94040.0,875000.0,2.0,1.0,MOUNTAIN VIEW,928.0,1016.0,1975.0,736.0,943.0,512.0,Sold,,,http://www.redfin.com/CA/Mountain-View/400-Ortega-Ave-94040/unit-109/home/2121041,MLSListings,ML81745375,N,Y,37.39953,-122.105682
277,PAST SALE,March-16-2020,Single Family Residential,3392 Ivan Way,MOUNTAIN VIEW,CA,94040.0,2650000.0,3.0,2.5,MOUNTAIN VIEW,2122.0,8709.0,1961.0,425.0,1249.0,,Sold,,,http://www.redfin.com/CA/Mountain-View/3392-Ivan-Way-94040/home/1500307,MLSListings,ML81781994,N,Y,37.3619468,-122.06487959999998
278,PAST SALE,December-31-2018,Condo/Co-op,400 Ortega Ave #121,MOUNTAIN VIEW,CA,94040.0,850000.0,2.0,1.0,MOUNTAIN VIEW,1016.0,1300.0,1975.0,866.0,837.0,505.0,Sold,,,http://www.redfin.com/CA/Mountain-View/400-Ortega-Ave-94040/unit-121/home/2121048,MLSListings,ML81730711,N,Y,37.399384999999995,-122.10555900000001
279,PAST SALE,September-26-2017,Condo/Co-op,49 Showers Dr Unit X155,MOUNTAIN VIEW,CA,94040.0,1027000.0,2.0,2.0,MOUNTAIN VIEW,1248.0,1880.0,1974.0,1327.0,823.0,410.0,Sold,,,http://www.redfin.com/CA/Mountain-View/49-Showers-Dr-94040/unit-X155/home/12171742,MLSListings,ML81673695,N,Y,37.4050369,-122.103554
280,PAST SALE,January-12-2021,Condo/Co-op,400 Ortega Ave #206,MOUNTAIN VIEW,CA,94040.0,785000.0,2.0,1.0,MOUNTAIN VIEW,995.0,,1975.0,123.0,789.0,512.0,Sold,,,http://www.redfin.com/CA/Mountain-View/400-Ortega-Ave-94040/unit-206/home/12171849,MLSListings,ML81821380,N,Y,37.400135999999996,-122.10510900000001
281,PAST SALE,November-27-2017,Condo/Co-op,400 Ortega Ave #211,MOUNTAIN VIEW,CA,94040.0,625000.0,1.0,1.0,MOUNTAIN VIEW,763.0,1300.0,1975.0,1265.0,819.0,359.0,Sold,,,http://www.redfin.com/CA/Mountain-View/400-Ortega-Ave-94040/unit-211/home/2121055,MLSListings,ML81676937,N,Y,37.399571,-122.10578899999999
282,PAST SALE,March-1-2019,Single Family Residential,3389 Ivan Way,MOUNTAIN VIEW,CA,94040.0,2560000.0,3.0,3.0,MOUNTAIN VIEW,2122.0,8034.0,1961.0,806.0,1206.0,,Sold,,,http://www.redfin.com/CA/Mountain-View/3389-Ivan-Way-94040/home/1321576,MLSListings,ML81734771,N,Y,37.36218289999999,-122.0643469
283,PAST SALE,June-9-2017,Townhouse,49 Showers Dr Unit Y477,MOUNTAIN VIEW,CA,94040.0,1550000.0,3.0,2.5,MOUNTAIN VIEW,1487.0,1880.0,1974.0,1436.0,1042.0,410.0,Sold,,,http://www.redfin.com/CA/Mountain-View/49-Showers-Dr-94040/unit-Y477/home/12171744,MLSListings,ML81649835,N,Y,37.4050369,-122.103554
284,PAST SALE,January-26-2017,Townhouse,49 Showers Dr Unit Y476,MOUNTAIN VIEW,CA,94040.0,1406000.0,3.0,2.5,MOUNTAIN VIEW,1487.0,1104.0,1974.0,1570.0,946.0,392.0,Sold,,,http://www.redfin.com/CA/Mountain-View/49-Showers-Dr-94040/unit-Y476/home/2120925,MLSListings,ML81631232,N,Y,37.4050369,-122.103554
285,PAST SALE,November-9-2016,Townhouse,49 Showers Dr Unit M467,MOUNTAIN VIEW,CA,94040.0,1370000.0,3.0,2.5,MOUNTAIN VIEW,1487.0,1880.0,1976.0,1648.0,921.0,392.0,Sold,,,http://www.redfin.com/CA/Mountain-View/49-Showers-Dr-94040/unit-M467/home/2120953,MLSListings,ML81626664,N,Y,37.4050369,-122.103554
286,PAST SALE,March-26-2018,Townhouse,49 Showers Dr Unit K432,MOUNTAIN VIEW,CA,94040.0,1758000.0,3.0,2.5,MOUNTAIN VIEW,1526.0,1.0,1976.0,1146.0,1152.0,434.0,Sold,,,http://www.redfin.com/CA/Mountain-View/49-Showers-Dr-94040/unit-K432/home/2120959,MLSListings,ML81693328,N,Y,37.4050369,-122.103554
287,PAST SALE,November-18-2020,Condo/Co-op,49 Showers Dr Unit J115,MOUNTAIN VIEW,CA,94040.0,1028000.0,2.0,2.0,MOUNTAIN VIEW,1206.0,1873080.0,1977.0,178.0,852.0,485.0,Sold,,,http://www.redfin.com/CA/Mountain-View/49-Showers-Dr-94040/unit-J115/home/12171767,MLSListings,ML81813818,N,Y,37.4050369,-122.103554
288,PAST SALE,November-9-2020,Townhouse,49 Showers Dr Unit F433,MOUNTAIN VIEW,CA,94040.0,1450000.0,3.0,2.5,MOUNTAIN VIEW,1526.0,7883.0,1976.0,187.0,950.0,485.0,Sold,,,http://www.redfin.com/CA/Mountain-View/49-Showers-Dr-94040/unit-F433/home/12171793,MLSListings,ML81811048,N,Y,37.4050369,-122.103554
289,PAST SALE,June-24-2020,Condo/Co-op,49 Showers Dr Unit J123,MOUNTAIN VIEW,CA,94040.0,1067000.0,2.0,2.0,MOUNTAIN VIEW,1206.0,21822.0,1977.0,325.0,885.0,485.0,Sold,,,http://www.redfin.com/CA/Mountain-View/49-Showers-Dr-94040/unit-J123/home/12171771,MLSListings,ML81790569,N,Y,37.4050369,-122.103554
290,PAST SALE,May-17-2018,Condo/Co-op,49 Showers Dr Unit J127,MOUNTAIN VIEW,CA,94040.0,1260000.0,2.0,2.0,MOUNTAIN VIEW,1206.0,21822.0,1977.0,1094.0,1045.0,435.0,Sold,,,http://www.redfin.com/CA/Mountain-View/49-Showers-Dr-94040/unit-J127/home/2120970,MLSListings,ML81701508,N,Y,37.4050369,-122.103554
291,PAST SALE,June-8-2016,Condo/Co-op,49 Showers Dr Unit E247,MOUNTAIN VIEW,CA,94040.0,719420.0,1.0,1.0,MOUNTAIN VIEW,959.0,1881.0,1976.0,1802.0,750.0,392.0,Sold,,,http://www.redfin.com/CA/Mountain-View/49-Showers-Dr-94040/unit-E247/home/2121004,MLSListings,ML81583830,N,Y,37.4050369,-122.103554
292,PAST SALE,May-1-2020,Condo/Co-op,49 Showers Dr Unit A339,MOUNTAIN VIEW,CA,94040.0,1058000.0,2.0,2.0,MOUNTAIN VIEW,1206.0,1206.0,1977.0,379.0,877.0,435.0,Sold,,,http://www.redfin.com/CA/Mountain-View/49-Showers-Dr-94040/unit-A339/home/2121035,MLSListings,ML81787310,N,Y,37.4050369,-122.103554
293,PAST SALE,July-22-2016,Condo/Co-op,49 Showers Dr Unit A341,MOUNTAIN VIEW,CA,94040.0,925000.0,2.0,2.0,MOUNTAIN VIEW,1206.0,1881.0,1977.0,1758.0,767.0,392.0,Sold,,,http://www.redfin.com/CA/Mountain-View/49-Showers-Dr-94040/unit-A341/home/12171832,MLSListings,ML81591108,N,Y,37.4050369,-122.103554
294,PAST SALE,August-8-2019,Townhouse,131 Ortega Ave,MOUNTAIN VIEW,CA,94040.0,1420000.0,3.0,2.5,MOUNTAIN VIEW,1725.0,2543.0,1978.0,646.0,823.0,497.0,Sold,,,http://www.redfin.com/CA/Mountain-View/131-Ortega-Ave-94040/home/2121127,MLSListings,ML81754134,N,Y,37.4032005,-122.1026676
295,PAST SALE,May-22-2017,Condo/Co-op,49 Showers Dr Unit A335,MOUNTAIN VIEW,CA,94040.0,982000.0,2.0,2.0,MOUNTAIN VIEW,1206.0,1880.0,1977.0,1454.0,814.0,410.0,Sold,,,http://www.redfin.com/CA/Mountain-View/49-Showers-Dr-94040/unit-A335/home/2121031,MLSListings,ML81645436,N,Y,37.4050369,-122.103554
296,PAST SALE,September-23-2016,Condo/Co-op,550 Ortega Ave Unit B130,MOUNTAIN VIEW,CA,94040.0,1070550.0,2.0,2.0,MOUNTAIN VIEW,1199.0,1001.0,1992.0,1695.0,893.0,375.0,Sold,,,http://www.redfin.com/CA/Mountain-View/550-Ortega-Ave-94040/unit-B130/home/2121343,MLSListings,ML81613649,N,Y,37.3991561,-122.10606740000001
297,PAST SALE,October-30-2020,Condo/Co-op,550 Ortega Ave Unit B330,MOUNTAIN VIEW,CA,94040.0,965000.0,2.0,2.0,MOUNTAIN VIEW,1157.0,,1992.0,197.0,834.0,460.0,Sold,,,http://www.redfin.com/CA/Mountain-View/550-Ortega-Ave-94040/unit-B330/home/2121344,MLSListings,ML81797890,N,Y,37.3991561,-122.10606740000001
298,PAST SALE,July-24-2020,Condo/Co-op,550 Ortega Ave Unit B119,MOUNTAIN VIEW,CA,94040.0,1120000.0,2.0,2.0,MOUNTAIN VIEW,1163.0,,1992.0,295.0,963.0,470.0,Sold,,,http://www.redfin.com/CA/Mountain-View/550-Ortega-Ave-94040/unit-B119/home/2121319,MLSListings,ML81795324,N,Y,37.3991561,-122.10606740000001
299,PAST SALE,September-6-2019,Condo/Co-op,550 Ortega Ave Unit B219,MOUNTAIN VIEW,CA,94040.0,1100000.0,2.0,2.0,MOUNTAIN VIEW,1163.0,,1992.0,617.0,946.0,442.0,Sold,,,http://www.redfin.com/CA/Mountain-View/550-Ortega-Ave-94040/unit-B219/home/12172030,MLSListings,ML81755577,N,Y,37.3991561,-122.10606740000001
300,PAST SALE,June-24-2019,Condo/Co-op,550 Ortega Ave Unit B419,MOUNTAIN VIEW,CA,94040.0,1150000.0,2.0,2.0,MOUNTAIN VIEW,1071.0,1284.0,1992.0,691.0,1074.0,442.0,Sold,,,http://www.redfin.com/CA/Mountain-View/550-Ortega-Ave-94040/unit-B419/home/12172032,MLSListings,ML81746487,N,Y,37.3991561,-122.10606740000001
301,PAST SALE,October-28-2020,Condo/Co-op,404 Baywood Ct,MOUNTAIN VIEW,CA,94040.0,1782000.0,3.0,2.5,MOUNTAIN VIEW,1782.0,1172.0,1988.0,199.0,1000.0,425.0,Sold,,,http://www.redfin.com/CA/Mountain-View/404-Baywood-Ct-94040/unit-801/home/12171682,MLSListings,ML81814602,N,Y,37.399879,-122.10372
302,PAST SALE,October-12-2017,Condo/Co-op,550 Ortega Ave Unit A216,MOUNTAIN VIEW,CA,94040.0,1165000.0,2.0,2.0,MOUNTAIN VIEW,1143.0,1000.0,1992.0,1311.0,1019.0,385.0,Sold,,,http://www.redfin.com/CA/Mountain-View/550-Ortega-Ave-94040/unit-A216/home/12172024,MLSListings,ML81676885,N,Y,37.3991561,-122.10606740000001
303,PAST SALE,August-10-2018,Townhouse,362 Winwood Ct,MOUNTAIN VIEW,CA,94040.0,1608000.0,2.0,2.5,MOUNTAIN VIEW,1240.0,702.0,1988.0,1009.0,1297.0,415.0,Sold,,,http://www.redfin.com/CA/Mountain-View/362-Winwood-Ct-94040/unit-902/home/2120824,MLSListings,ML81713035,N,Y,37.400307,-122.10381399999999
304,PAST SALE,July-27-2018,Townhouse,382 Winwood Ct,MOUNTAIN VIEW,CA,94040.0,2030000.0,3.0,2.5,MOUNTAIN VIEW,1782.0,1191.0,1988.0,1023.0,1139.0,415.0,Sold,,,http://www.redfin.com/CA/Mountain-View/382-Winwood-Ct-94040/unit-904/home/2120825,MLSListings,ML81712299,N,Y,37.400193,-122.103879
305,PAST SALE,June-30-2020,Townhouse,332 Deerwood Ct #1104,MOUNTAIN VIEW,CA,94040.0,1212750.0,2.0,2.5,MOUNTAIN VIEW,1240.0,764.0,1988.0,319.0,978.0,425.0,Sold,,,http://www.redfin.com/CA/Mountain-View/332-Deerwood-Ct-94040/unit-1104/home/12171687,MLSListings,ML81793818,N,Y,37.400531799999996,-122.10366
306,PAST SALE,October-17-2018,Single Family Residential,203 Cuesta Dr,MOUNTAIN VIEW,CA,94040.0,2100000.0,3.0,1.0,MOUNTAIN VIEW,1654.0,12400.0,1954.0,941.0,1270.0,,Sold,,,http://www.redfin.com/CA/Mountain-View/203-Cuesta-Dr-94040/home/647005,MLSListings,ML81711807,N,Y,37.373281,-122.0789777
307,PAST SALE,January-27-2020,Single Family Residential,142 College Ave,Mountain View,CA,94040.0,1900000.0,4.0,2.0,Ca Mountain View,1519.0,5057.0,1961.0,474.0,1251.0,,Sold,,,http://www.redfin.com/CA/Mountain-View/142-College-Ave-94040/home/2120604,"bridgeMLS, Bay East AOR, or Contra Costa AOR",40890521,N,Y,37.402955600000006,-122.1001432
308,PAST SALE,September-11-2018,Condo/Co-op,2111 Latham St #301,MOUNTAIN VIEW,CA,94040.0,1112500.0,2.0,2.0,MOUNTAIN VIEW,1382.0,1178.0,1978.0,977.0,805.0,458.0,Sold,,,http://www.redfin.com/CA/Mountain-View/2111-Latham-St-94040/unit-301/home/2121166,MLSListings,ML81715268,N,Y,37.3968671,-122.1019848
309,PAST SALE,February-21-2020,Condo/Co-op,2211 Latham St #112,MOUNTAIN VIEW,CA,94040.0,975000.0,2.0,2.0,MOUNTAIN VIEW,1206.0,,1978.0,449.0,808.0,545.0,Sold,,,http://www.redfin.com/CA/Mountain-View/2211-Latham-St-94040/unit-112/home/12171930,MLSListings,ML81778821,N,Y,37.3972947,-122.1030499
310,PAST SALE,January-23-2019,Condo/Co-op,2211 Latham St #210,MOUNTAIN VIEW,CA,94040.0,998888.0,2.0,2.0,MOUNTAIN VIEW,1206.0,1248.0,1978.0,843.0,828.0,458.0,Sold,,,http://www.redfin.com/CA/Mountain-View/2211-Latham-St-94040/unit-210/home/12171934,MLSListings,ML81728331,N,Y,37.3972947,-122.1030499
311,PAST SALE,June-15-2016,Condo/Co-op,2211 Latham St #306,MOUNTAIN VIEW,CA,94040.0,680000.0,1.0,1.0,MOUNTAIN VIEW,1000.0,1080.0,1978.0,1795.0,680.0,420.0,Sold,,,http://www.redfin.com/CA/Mountain-View/2211-Latham-St-94040/unit-306/home/2121186,MLSListings,ML81585150,N,Y,37.3972947,-122.1030499
312,PAST SALE,May-12-2020,Condo/Co-op,550 Ortega Ave Unit A101,MOUNTAIN VIEW,CA,94040.0,1100000.0,2.0,2.0,MOUNTAIN VIEW,1267.0,,1992.0,368.0,868.0,470.0,Sold,,,http://www.redfin.com/CA/Mountain-View/550-Ortega-Ave-94040/unit-A101/home/12172002,MLSListings,ML81786479,N,Y,37.3991561,-122.10606740000001
313,PAST SALE,January-3-2020,Single Family Residential,786 Bond Way,MOUNTAIN VIEW,CA,94040.0,2110000.0,3.0,2.0,MOUNTAIN VIEW,1313.0,5599.0,1952.0,498.0,1607.0,,Sold,,,http://www.redfin.com/CA/Mountain-View/786-Bond-Way-94040/home/1751547,MLSListings,ML81774836,N,Y,37.3728505,-122.0863409
314,PAST SALE,June-29-2017,Single Family Residential,3360 Shady Spring Ln,MOUNTAIN VIEW,CA,94040.0,2950000.0,5.0,3.0,MOUNTAIN VIEW,3277.0,8075.0,1991.0,1416.0,900.0,,Sold,,,http://www.redfin.com/CA/Mountain-View/3360-Shady-Spring-Ln-94040/home/17293552,MLSListings,ML81651907,N,Y,37.3627921,-122.07127179999999
315,PAST SALE,July-26-2016,Single Family Residential,1108 Blue Lake Sq,MOUNTAIN VIEW,CA,94040.0,1890000.0,4.0,3.0,MOUNTAIN VIEW,2234.0,3571.0,1973.0,1754.0,846.0,371.0,Sold,,,http://www.redfin.com/CA/Mountain-View/1108-Blue-Lake-Sq-94040/home/1785747,MLSListings,ML81588968,N,Y,37.358022999999996,-122.06987659999999
316,PAST SALE,December-20-2019,Condo/Co-op,2239 Mora Pl,MOUNTAIN VIEW,CA,94040.0,1675000.0,3.0,3.5,MOUNTAIN VIEW,1687.0,,2018.0,512.0,993.0,399.0,Sold,,,http://www.redfin.com/CA/Mountain-View/2239-Mora-Pl-94040/home/168869300,MLSListings,ML81729697,N,Y,37.40280900803271,-122.1019553387619
317,PAST SALE,April-2-2019,Single Family Residential,1202 Andre Ave,MOUNTAIN VIEW,CA,94040.0,2300000.0,3.0,2.0,MOUNTAIN VIEW,1850.0,8721.0,2021.0,774.0,1243.0,,Sold,,,http://www.redfin.com/CA/Mountain-View/1202-Andre-Ave-94040/home/647440,MLSListings,ML81739505,N,Y,37.362746,-122.06863059999999
318,PAST SALE,April-24-2017,Condo/Co-op,1910 Mount Vernon Ct #17,MOUNTAIN VIEW,CA,94040.0,630000.0,1.0,1.0,MOUNTAIN VIEW,910.0,910.0,1963.0,1482.0,692.0,500.0,Sold,,,http://www.redfin.com/CA/Mountain-View/1910-Mt-Vernon-Ct-94040/unit-17/home/616459,MLSListings,ML81642384,N,Y,37.396112,-122.09494699999999
319,PAST SALE,January-23-2019,Condo/Co-op,1910 Mount Vernon Ct #20,MOUNTAIN VIEW,CA,94040.0,600000.0,1.0,1.0,MOUNTAIN VIEW,884.0,,1963.0,843.0,679.0,518.0,Sold,,,http://www.redfin.com/CA/Mountain-View/1910-Mt-Vernon-Ct-94040/unit-20/home/1272428,MLSListings,ML81723960,N,Y,37.396112,-122.09494699999999
320,PAST SALE,July-13-2018,Condo/Co-op,1930 Mount Vernon Ct #2,MOUNTAIN VIEW,CA,94040.0,820000.0,1.0,1.0,MOUNTAIN VIEW,827.0,,1963.0,1037.0,992.0,518.0,Sold,,,http://www.redfin.com/CA/Mountain-View/1930-Mt-Vernon-Ct-94040/unit-2/home/1178974,MLSListings,ML81708547,N,Y,37.3963141,-122.0955722
321,PAST SALE,August-20-2020,Condo/Co-op,1943 Mount Vernon Ct #203,MOUNTAIN VIEW,CA,94040.0,830000.0,2.0,2.0,MOUNTAIN VIEW,1169.0,,1977.0,268.0,710.0,610.0,Sold,,,http://www.redfin.com/CA/Mountain-View/1943-Mt-Vernon-Ct-94040/unit-203/home/1690779,MLSListings,ML81799236,N,Y,37.3965831,-122.0971205
322,PAST SALE,October-10-2018,Condo/Co-op,1943 Mount Vernon Ct #208,MOUNTAIN VIEW,CA,94040.0,1000000.0,2.0,2.0,MOUNTAIN VIEW,1169.0,2500.0,1977.0,948.0,855.0,518.0,Sold,,,http://www.redfin.com/CA/Mountain-View/1943-Mt-Vernon-Ct-94040/unit-208/home/1163933,MLSListings,ML81723260,N,Y,37.3965831,-122.0971205
323,PAST SALE,June-30-2017,Condo/Co-op,1943 Mount Vernon Ct #307,MOUNTAIN VIEW,CA,94040.0,1010000.0,2.0,2.0,MOUNTAIN VIEW,1169.0,2500.0,1977.0,1415.0,864.0,500.0,Sold,,,http://www.redfin.com/CA/Mountain-View/1943-Mt-Vernon-Ct-94040/unit-307/home/1462876,MLSListings,ML81655039,N,Y,37.3965831,-122.0971205
324,PAST SALE,December-30-2019,Condo/Co-op,1945 Mount Vernon Ct #10,MOUNTAIN VIEW,CA,94040.0,832500.0,2.0,2.0,MOUNTAIN VIEW,1086.0,1173.0,1964.0,502.0,767.0,550.0,Sold,,,http://www.redfin.com/CA/Mountain-View/1945-Mt-Vernon-Ct-94040/unit-10/home/1274660,MLSListings,ML81773487,N,Y,37.3962344,-122.09639320000001
325,PAST SALE,May-22-2020,Condo/Co-op,1945 Mount Vernon Ct #13,MOUNTAIN VIEW,CA,94040.0,900000.0,2.0,2.0,MOUNTAIN VIEW,1299.0,,1964.0,358.0,693.0,610.0,Sold,,,http://www.redfin.com/CA/Mountain-View/1945-Mt-Vernon-Ct-94040/unit-13/home/1280166,MLSListings,ML81789143,N,Y,37.3962344,-122.09639320000001
326,PAST SALE,September-25-2019,Condo/Co-op,1945 Mount Vernon Ct #15,MOUNTAIN VIEW,CA,94040.0,848000.0,2.0,2.0,MOUNTAIN VIEW,1133.0,1173.0,1964.0,598.0,748.0,550.0,Sold,,,http://www.redfin.com/CA/Mountain-View/1945-Mt-Vernon-Ct-94040/unit-15/home/1558082,MLSListings,ML81765600,N,Y,37.3962344,-122.09639320000001
327,PAST SALE,July-29-2016,Condo/Co-op,1915 Mount Vernon Ct #10,MOUNTAIN VIEW,CA,94040.0,499000.0,1.0,1.0,MOUNTAIN VIEW,864.0,1200.0,1964.0,1751.0,578.0,488.0,Sold,,,http://www.redfin.com/CA/Mountain-View/1915-Mt-Vernon-Ct-94040/unit-10/home/616689,MLSListings,ML81590045,N,Y,37.395635399999996,-122.09515060000001
328,PAST SALE,April-20-2018,Condo/Co-op,1915 Mount Vernon Ct #13,MOUNTAIN VIEW,CA,94040.0,826000.0,2.0,1.0,MOUNTAIN VIEW,1056.0,1019.0,1964.0,1121.0,782.0,525.0,Sold,,,http://www.redfin.com/CA/Mountain-View/1915-Mt-Vernon-Ct-94040/unit-13/home/1274673,MLSListings,ML81695491,N,Y,37.395635399999996,-122.09515060000001
329,PAST SALE,March-10-2020,Condo/Co-op,1915 Mount Vernon Ct #18,MOUNTAIN VIEW,CA,94040.0,765000.0,2.0,1.0,MOUNTAIN VIEW,1056.0,1014.0,1964.0,431.0,724.0,610.0,Sold,,,http://www.redfin.com/CA/Mountain-View/1915-Mt-Vernon-Ct-94040/unit-18/home/616709,MLSListings,ML81781718,N,Y,37.395635399999996,-122.09515060000001
330,PAST SALE,March-17-2017,Condo/Co-op,255 S Rengstorff Ave #52,MOUNTAIN VIEW,CA,94040.0,960000.0,3.0,2.0,MOUNTAIN VIEW,1292.0,1395.0,1965.0,1520.0,743.0,558.0,Sold,,,http://www.redfin.com/CA/Mountain-View/255-S-Rengstorff-Ave-94040/unit-52/home/1173475,MLSListings,ML81640131,N,Y,37.4000438,-122.09900079999998
